"LocationID";"ParentCorpID";"LocationName";"lon";"lat";"location";"df_tx90p";"df_pdsisc";"df_coastalflood";"df_carbonprice";"df_zindex";"df_tbd3";"notes"
1;1;"Boise";-116.149136;43.529396;"Boise_Idaho";"tx90p-1";"pdsisc-3";"coastalflood-1";"carbonprice-1";"zindex-3";"-";"-"
2;1;"Manassas";-77.503845;38.750829;"Manassas_Virginia";"tx90p-2";"pdsisc-3";"coastalflood-2";"carbonprice-1";"zindex-3";"-";"-"
3;1;"Singapore_Hqs";103.864621;1.31839;"Singapore";"tx90p-1";"pdsisc-3";"coastalflood-1";"carbonprice-1";"zindex-3";"-";"-"
4;1;"Singapore_300mm_DRAM";103.767569;1.432186;"Singapore";"tx90p-1";"pdsisc-3";"coastalflood-1";"carbonprice-1";"zindex-3";"-";"-"
5;1;"Singapore_300mm_NAND";103.793645;1.454831;"Singapore";"tx90p-1";"pdsisc-3";"coastalflood-1";"carbonprice-1";"zindex-3";"-";"-"
6;1;"Singapore_200mm_NOR";103.866405;1.37479;"Singapore";"tx90p-1";"pdsisc-3";"coastalflood-1";"carbonprice-1";"zindex-3";"-";"-"
7;1;"Catania";14.99;37.421801;"Catania_Italy";"tx90p-1";"pdsisc-3";"coastalflood-1";"carbonprice-1";"zindex-3";"-";"XXX_original_lon=15.056097_moved_west_4landpoint"
8;1;"Bangalore";77.623906;12.982352;"Bangalore_India";"tx90p-1";"pdsisc-3";"coastalflood-1";"carbonprice-1";"zindex-3";"-";"-"
9;2;"American_Falls";-112.8764;42.7778;"American_Falls_ID";"tx90p-1";"pdsisc-1";"coastalflood-1";"carbonprice-1";"zindex-3";"-";"-"
10;2;"Bliss";-115.070986;42.913786;"Bliss_ID";"tx90p-1";"pdsisc-1";"coastalflood-1";"carbonprice-1";"zindex-3";"-";"-"
11;2;"Brownlee";-116.8975;44.8367;"Cambridge_ID";"tx90p-1";"pdsisc-1";"coastalflood-1";"carbonprice-1";"zindex-3";"-";"-"
12;2;"C_J_Strike";-115.977858;42.944869;"Bruneau_ID";"tx90p-1";"pdsisc-1";"coastalflood-1";"carbonprice-1";"zindex-3";"-";"-"
13;2;"Cascade_Dam";-116.0483;44.5256;"Cascade_ID";"tx90p-1";"pdsisc-1";"coastalflood-1";"carbonprice-1";"zindex-3";"-";"-"
14;2;"Clear_Lake";-114.78012;42.66701;"Buhl_ID";"tx90p-1";"pdsisc-1";"coastalflood-1";"carbonprice-1";"zindex-3";"-";"-"
15;2;"Lower_Malad";-114.906172;42.865783;"Hagerman_ID";"tx90p-1";"pdsisc-1";"coastalflood-1";"carbonprice-1";"zindex-3";"-";"-"
16;2;"Lower_Salmon";-114.903611;42.841608;"Hagerman_ID";"tx90p-1";"pdsisc-1";"coastalflood-1";"carbonprice-1";"zindex-3";"-";"-"
17;2;"Salmon_Diesel";-113.885307;45.183368;"Salmon_ID";"tx90p-1";"pdsisc-1";"coastalflood-1";"carbonprice-1";"zindex-3";"-";"-"
18;2;"Shoshone_Falls";-114.4033;42.5975;"Twin_Falls_ID";"tx90p-1";"pdsisc-1";"coastalflood-1";"carbonprice-1";"zindex-3";"-";"-"
19;2;"Swan_Falls";-116.3791;43.2435;"Kuna_ID";"tx90p-1";"pdsisc-1";"coastalflood-1";"carbonprice-1";"zindex-3";"-";"-"
20;2;"Thousand_Springs";-114.836722;42.740542;"Wendell_ID";"tx90p-1";"pdsisc-1";"coastalflood-1";"carbonprice-1";"zindex-3";"-";"-"
21;2;"Twin_Falls_(ID)";-114.3553;42.5892;"Kimberly_ID";"tx90p-1";"pdsisc-1";"coastalflood-1";"carbonprice-1";"zindex-3";"-";"-"
22;2;"Upper_Salmon_A";-114.924692;42.767422;"Hagerman_ID";"tx90p-1";"pdsisc-1";"coastalflood-1";"carbonprice-1";"zindex-3";"-";"-"
23;2;"Upper_Malad";-114.885542;42.864267;"Hagerman_ID";"tx90p-1";"pdsisc-1";"coastalflood-1";"carbonprice-1";"zindex-3";"-";"-"
24;2;"Hells_Canyon";-116.7008;45.2439;"Oxbow_OR";"tx90p-1";"pdsisc-1";"coastalflood-1";"carbonprice-1";"zindex-3";"-";"-"
25;2;"Oxbow_(OR)";-116.835042;44.971643;"Oxbow_OR";"tx90p-1";"pdsisc-1";"coastalflood-1";"carbonprice-1";"zindex-3";"-";"-"
26;2;"Upper_Salmon_B";-114.908236;42.766397;"Hagerman_ID";"tx90p-1";"pdsisc-1";"coastalflood-1";"carbonprice-1";"zindex-3";"-";"-"
27;2;"Milner_Hydro";-114.036889;42.526786;"Murtaugh_ID";"tx90p-1";"pdsisc-1";"coastalflood-1";"carbonprice-1";"zindex-3";"-";"-"
28;2;"Evander_Andrews_Power_Complex";-115.734315;43.179176;"Mountain_Home_ID";"tx90p-1";"pdsisc-1";"coastalflood-1";"carbonprice-1";"zindex-3";"-";"-"
29;2;"Bennett_Mountain";-115.666637;43.147153;"Mountain_Home_ID";"tx90p-1";"pdsisc-1";"coastalflood-1";"carbonprice-1";"zindex-3";"-";"-"
30;2;"Langley_Gulch_Power_Plant";-116.819722;43.904444;"New_Plymouth_ID";"tx90p-1";"pdsisc-1";"coastalflood-1";"carbonprice-1";"zindex-3";"-";"-"
31;3;"Boise";-116.3253437;43.658527;"Boise_Idaho";"tx90p-1";"pdsisc-3";"coastalflood-1";"carbonprice-1";"zindex-3";"-";"-"
32;3;"Colorado_Springs";-104.849597;38.9201781;"Colorado_Springs_CO";"tx90p-1";"pdsisc-3";"coastalflood-1";"carbonprice-1";"zindex-3";"-";"-"
33;3;"Corvallis";-123.2450786;44.5854276;"Corvallis_OR";"tx90p-1";"pdsisc-3";"coastalflood-1";"carbonprice-1";"zindex-3";"-";"-"
34;3;"Cupertino";-122.0327049;37.321732;"Cupertino_CA";"tx90p-1";"pdsisc-3";"coastalflood-1";"carbonprice-1";"zindex-3";"-";"-"
35;3;"Houston";-95.8236304;29.8128657;"Houston_TX";"tx90p-1";"pdsisc-3";"coastalflood-1";"carbonprice-1";"zindex-3";"-";"-"
36;3;"Palo_Alto";-122.1679636;37.4276363;"Palo_Alto_CA";"tx90p-1";"pdsisc-3";"coastalflood-1";"carbonprice-1";"zindex-3";"-";"-"
37;3;"Plano";-96.8055583;33.0430197;"Plano_TX";"tx90p-1";"pdsisc-3";"coastalflood-1";"carbonprice-1";"zindex-3";"-";"-"
38;3;"Roseville";-121.3208949;38.7856002;"Roseville_CA";"tx90p-1";"pdsisc-3";"coastalflood-1";"carbonprice-1";"zindex-3";"-";"-"
39;3;"San_Bernadino";-117.3939088;34.2112961;"San_Bernadino_CA";"tx90p-1";"pdsisc-3";"coastalflood-1";"carbonprice-1";"zindex-3";"-";"-"
40;3;"Dublin";-6.4846805;53.3728178;"Dublin_Ireland";"tx90p-1";"pdsisc-3";"coastalflood-1";"carbonprice-1";"zindex-3";"-";"-"
41;3;"Puerto_Rico";-67.1121777;18.486511;"Puerto_Rico";"tx90p-1";"pdsisc-3";"coastalflood-1";"carbonprice-1";"zindex-3";"-";"-"
42;3;"Barcelona_Sant_Cugat";2.0603031;41.4918967;"Barcelona_Sant_Cugat_Spain";"tx90p-1";"pdsisc-3";"coastalflood-1";"carbonprice-1";"zindex-3";"-";"-"
43;3;"Rehovot";34.8032196;31.9158052;"Rehovot_Israel";"tx90p-1";"pdsisc-3";"coastalflood-1";"carbonprice-1";"zindex-3";"-";"-"
44;3;"Singapore_DRD";103.7995975;1.2765481;"Singapore_DRD";"tx90p-1";"pdsisc-3";"coastalflood-1";"carbonprice-1";"zindex-3";"-";"-"
45;3;"San_Diego";-117.2904943;32.9066098;"San_Diego_CA";"tx90p-1";"pdsisc-3";"coastalflood-1";"carbonprice-1";"zindex-3";"-";"-"
46;3;"SUP_Celestica_Malaysia";103.5973;1.6446;"SUP_Celestica_Malaysia";"tx90p-1";"pdsisc-3";"coastalflood-1";"carbonprice-1";"zindex-3";"-";"-"
47;3;"SUP_Flex_Brazil";-47.368455;-23.427205;"SUP_Flex_Brazil";"tx90p-1";"pdsisc-3";"coastalflood-1";"carbonprice-1";"zindex-3";"-";"-"
48;3;"SUP_Flex_Malaysia";103.6439;1.5014;"SUP_Flex_Malaysia";"tx90p-1";"pdsisc-3";"coastalflood-1";"carbonprice-1";"zindex-3";"-";"-"
49;3;"SUP_Jabil_Circuit_NL";5.975;51.525;"SUP_Jabil_Circuit_NL";"tx90p-1";"pdsisc-3";"coastalflood-1";"carbonprice-1";"zindex-3";"-";"-"
50;3;"SUP_Venture_Malaysia";103.75;1.466667;"SUP_Venture_Malaysia";"tx90p-1";"pdsisc-3";"coastalflood-1";"carbonprice-1";"zindex-3";"-";"-"
51;4;"Indooroopilly_Shopping_Centre";152.9704551;-27.4996058;"Indooroopilly_QLD";"tx90p-1";"pdsisc-4";"coastalflood-1";"carbonprice-1";"zindex-3";"-";"-"
52;4;"Pacific_Fair";153.4258423;-28.036514;"Broadbeach_QLD";"tx90p-1";"pdsisc-4";"coastalflood-2";"carbonprice-1";"zindex-3";"-";"-"
53;4;"Stanley_Plaza";153.0207033;-27.4786392;"South_Brisbane_QLD";"tx90p-1";"pdsisc-4";"coastalflood-1";"carbonprice-1";"zindex-3";"-";"-"
54;4;"Coronation_Drive_Office_Park";153.0067519;-27.4695483;"Milton_QLD";"tx90p-1";"pdsisc-4";"coastalflood-1";"carbonprice-1";"zindex-3";"-";"-"
55;4;"Macquarie_Centre";151.1183266;-33.7767473;"North_Ryde_NSW";"tx90p-1";"pdsisc-4";"coastalflood-1";"carbonprice-1";"zindex-3";"-";"-"
56;4;"AMP_Building";151.2099354;-33.8625739;"Sydney";"tx90p-1";"pdsisc-4";"coastalflood-2";"carbonprice-1";"zindex-3";"-";"-"
57;4;"NAB_Headquarters";144.9472084;-37.817371;"Melbourne";"tx90p-1";"pdsisc-4";"coastalflood-2";"carbonprice-1";"zindex-3";"-";"-"
58;4;"Malvern_Central";145.0249768;-37.8628425;"Armadale_VIC";"tx90p-1";"pdsisc-4";"coastalflood-1";"carbonprice-1";"zindex-3";"-";"-"
59;4;"Exchange_Tower";115.8564435;-31.956254;"Perth_WA";"tx90p-1";"pdsisc-4";"coastalflood-2";"carbonprice-1";"zindex-3";"-";"-"
60;4;"Garden_City";115.8337414;-32.0339551;"Booragoon_WA";"tx90p-1";"pdsisc-4";"coastalflood-2";"carbonprice-1";"zindex-3";"-";"-"
61;4;"The_Palms_NZ";172.6626893;-43.5074711;"Christchurch_NZ";"tx90p-1";"pdsisc-4";"coastalflood-1";"carbonprice-1";"zindex-3";"-";"-"
62;5;"Gridley_IL";-88.88146;40.74337;"Gridley_IL_USA";"tx90p-1";"pdsisc-1";"coastalflood-1";"carbonprice-1";"zindex-3";"-";"-"
63;5;"Blue_Earth_MN";-94.06703;44.03459;"Blue_Earth_MN_USA";"tx90p-1";"pdsisc-1";"coastalflood-1";"carbonprice-1";"zindex-3";"-";"-"
64;5;"Bakersfield_CA";-119.01871;35.37329;"Bakersfield_CA_USA";"tx90p-1";"pdsisc-1";"coastalflood-1";"carbonprice-1";"zindex-3";"-";"-"
65;5;"Foley_MN";-93.9097;45.66469;"Foley_MN_USA";"tx90p-1";"pdsisc-1";"coastalflood-1";"carbonprice-1";"zindex-3";"-";"-"
66;6;"Mobile_AL_USA";-88.070993;30.634657;"Mobile_AL_USA";"tx90p-1";"pdsisc-3";"coastalflood-1";"carbonprice-1";"zindex-3";"-";"-"
67;6;"Columbus_MS_USA";-88.42726;33.49567;"Columbus_MS_USA";"tx90p-1";"pdsisc-3";"coastalflood-1";"carbonprice-1";"zindex-3";"-";"-"
68;6;"Grand_Prairie_TX_USA";-96.99778;32.74596;"Grand_Prairie_TX_USA";"tx90p-1";"pdsisc-3";"coastalflood-1";"carbonprice-1";"zindex-3";"-";"-"
69;6;"Atlanta_GA_USA";-84.38798;33.749;"Atlanta_GA_USA";"tx90p-1";"pdsisc-3";"coastalflood-1";"carbonprice-1";"zindex-3";"-";"-"
70;6;"Miami_FL_USA";-80.268231;25.809275;"Miami_FL_USA";"tx90p-1";"pdsisc-3";"coastalflood-1";"carbonprice-1";"zindex-3";"-";"-"
71;6;"Ashburn_VA_USA";-77.48749;39.04372;"Ashburn_VA_USA";"tx90p-1";"pdsisc-3";"coastalflood-1";"carbonprice-1";"zindex-3";"-";"-"
72;6;"Hamburg_Germany";10.01534;53.57532;"Hamburg_Germany";"tx90p-1";"pdsisc-3";"coastalflood-1";"carbonprice-1";"zindex-3";"-";"-"
73;6;"Tianjin_China";117.17667;39.14222;"Tianjin_China";"tx90p-1";"pdsisc-3";"coastalflood-1";"carbonprice-1";"zindex-3";"-";"-"
74;6;"Toulouse_France";1.44367;43.60426;"Toulouse_France";"tx90p-1";"pdsisc-3";"coastalflood-1";"carbonprice-1";"zindex-3";"-";"-"
75;6;"Queretaro_Mexico";-100.38333;20.6;"Queretaro_Mexico";"tx90p-1";"pdsisc-3";"coastalflood-1";"carbonprice-1";"zindex-3";"-";"-"
76;6;"Itajuba_Minas_Gerais_Brazil";-45.45278;-22.42556;"Itajuba_Minas_Gerais_Brazil";"tx90p-1";"pdsisc-3";"coastalflood-1";"carbonprice-1";"zindex-3";"-";"-"
77;6;"Sao_Paulo_Brazil";-46.63611;-23.5475;"Sao_Paulo_Brazil";"tx90p-1";"pdsisc-3";"coastalflood-1";"carbonprice-1";"zindex-3";"-";"-"
78;6;"Rio_de_Janeiro_Brazil";-43.2075;-22.90278;"Rio_de_Janeiro_Brazil";"tx90p-1";"pdsisc-3";"coastalflood-1";"carbonprice-1";"zindex-3";"-";"-"
79;6;"Brasilia_Brazil";-47.75;-15.75;"Brasilia_Brazil";"tx90p-1";"pdsisc-3";"coastalflood-1";"carbonprice-1";"zindex-3";"-";"-"
80;6;"Broughton_UK";-0.76667;52.36667;"Broughton_UK";"tx90p-1";"pdsisc-3";"coastalflood-1";"carbonprice-1";"zindex-3";"-";"-"
81;6;"Bristol_UK";-2.59665;51.45523;"Bristol_UK";"tx90p-1";"pdsisc-3";"coastalflood-1";"carbonprice-1";"zindex-3";"-";"-"
82;6;"Stade_Germany";9.47629;53.59337;"Stade_Germany";"tx90p-1";"pdsisc-3";"coastalflood-1";"carbonprice-1";"zindex-3";"-";"-"
83;6;"Bremen_Germany";8.79063;53.08891;"Bremen_Germany";"tx90p-1";"pdsisc-3";"coastalflood-1";"carbonprice-1";"zindex-3";"-";"-"
84;6;"Donauworth_Germany";10.7793;48.71804;"Donauworth_Germany";"tx90p-1";"pdsisc-3";"coastalflood-1";"carbonprice-1";"zindex-3";"-";"-"
85;6;"Nantes_France";-1.55336;47.21725;"Nantes_France";"tx90p-1";"pdsisc-3";"coastalflood-1";"carbonprice-1";"zindex-3";"-";"-"
86;6;"Marignane_France";5.232735;43.436747;"Marignane_France";"tx90p-1";"pdsisc-3";"coastalflood-1";"carbonprice-1";"zindex-3";"-";"-"
87;6;"Madrid_Spain";-3.708277;40.303933;"Madrid_Spain";"tx90p-1";"pdsisc-3";"coastalflood-1";"carbonprice-1";"zindex-3";"-";"-"
88;6;"Sevilla_Spain";-5.97613;37.38241;"Sevilla_Spain";"tx90p-1";"pdsisc-3";"coastalflood-1";"carbonprice-1";"zindex-3";"-";"-"
89;6;"Casablanca_Morocco";-7.61138;33.58831;"Casablanca_Morocco";"tx90p-1";"pdsisc-3";"coastalflood-1";"carbonprice-1";"zindex-3";"-";"-"
90;6;"Blenheim_New_Zealand";173.9528;-41.51603;"Blenheim_New_Zealand";"tx90p-1";"pdsisc-3";"coastalflood-1";"carbonprice-1";"zindex-3";"-";"-"
91;6;"Brisbane_Australia";153.02809;-27.46794;"Brisbane_Australia";"tx90p-1";"pdsisc-3";"coastalflood-1";"carbonprice-1";"zindex-3";"-";"-"
92;6;"Riyadh_Saudi_Arabia";46.72185;24.68773;"Riyadh_Saudi_Arabia";"tx90p-1";"pdsisc-3";"coastalflood-1";"carbonprice-1";"zindex-3";"-";"-"
93;6;"Jubail_Saudi_Arabia";49.65826;27.01122;"Jubail_Saudi_Arabia";"tx90p-1";"pdsisc-3";"coastalflood-1";"carbonprice-1";"zindex-3";"-";"-"
94;7;"Campo_Grande_Brazil";-54.599297;-20.498802;"Campo_Grande_Brazil";"tx90p-1";"pdsisc-1";"coastalflood-1";"carbonprice-1";"zindex-3";"-";"-"
95;7;"Belo_Horizonte_Brazil";-43.93778;-19.92083;"Belo_Horizonte_Brazil";"tx90p-1";"pdsisc-1";"coastalflood-1";"carbonprice-1";"zindex-3";"-";"-"
96;7;"Porto_Real_Brazil";-44.29028;-22.41972;"Porto_Real_Brazil";"tx90p-1";"pdsisc-1";"coastalflood-1";"carbonprice-1";"zindex-3";"-";"-"
97;7;"Mogi_das_Cruzes_Brazil";-46.18833;-23.52278;"Mogi_das_Cruzes_Brazil";"tx90p-1";"pdsisc-1";"coastalflood-1";"carbonprice-1";"zindex-3";"-";"-"
98;7;"Jundiai_Brazil";-46.88417;-23.18639;"Jundiai_Brazil";"tx90p-1";"pdsisc-1";"coastalflood-1";"carbonprice-1";"zindex-3";"-";"-"
99;7;"Sao_Paulo_Brazil";-46.6964291;-23.6714033;"Sao_Paulo_Brazil";"tx90p-1";"pdsisc-1";"coastalflood-1";"carbonprice-1";"zindex-3";"-";"-"
100;7;"Curitiba_Brazil";-49.27306;-25.42778;"Curitiba_Brazil";"tx90p-1";"pdsisc-1";"coastalflood-1";"carbonprice-1";"zindex-3";"-";"-"
101;7;"Maringa_Brazil";-51.93861;-23.42528;"Maringa_Brazil";"tx90p-1";"pdsisc-1";"coastalflood-1";"carbonprice-1";"zindex-3";"-";"-"
102;7;"Marilia_Brazil";-49.94583;-22.21389;"Marilia_Brazil";"tx90p-1";"pdsisc-1";"coastalflood-1";"carbonprice-1";"zindex-3";"-";"-"
103;7;"Bauru_Brazil";-49.06056;-22.31472;"Bauru_Brazil";"tx90p-1";"pdsisc-1";"coastalflood-1";"carbonprice-1";"zindex-3";"-";"-"
104;7;"San_Cristobal_de_las_Casas_Mexico";-92.63819;16.73788;"San_Cristobal_de_las_Casas_Mexico";"tx90p-1";"pdsisc-1";"coastalflood-1";"carbonprice-1";"zindex-3";"-";"-"
105;7;"Tabasco_Mexico";-92.93028;17.98689;"Tabasco_Mexico";"tx90p-1";"pdsisc-1";"coastalflood-1";"carbonprice-1";"zindex-3";"-";"-"
106;7;"Coatepec_Mexico";-96.96026;19.45379;"Coatepec_Mexico";"tx90p-1";"pdsisc-1";"coastalflood-1";"carbonprice-1";"zindex-3";"-";"-"
107;7;"Poza_Rica_Mexico";-97.460137;20.501138;"Poza_Rica_Mexico";"tx90p-1";"pdsisc-1";"coastalflood-1";"carbonprice-1";"zindex-3";"-";"-"
108;7;"Apizaco_Mexico";-98.14358;19.41333;"Apizaco_Mexico";"tx90p-1";"pdsisc-1";"coastalflood-1";"carbonprice-1";"zindex-3";"-";"-"
109;7;"Leon_Mexico";-101.66801;21.12131;"Leon_Mexico";"tx90p-1";"pdsisc-1";"coastalflood-1";"carbonprice-1";"zindex-3";"-";"-"
110;7;"Santiago_deA_Queretaro_Mexico";-100.3833;20.6;"Santiago_deA_Queretaro_Mexico";"tx90p-1";"pdsisc-1";"coastalflood-1";"carbonprice-1";"zindex-3";"-";"-"
111;7;"Zinacantepec_Mexico";-99.73478;19.28501;"Zinacantepec_Mexico";"tx90p-1";"pdsisc-1";"coastalflood-1";"carbonprice-1";"zindex-3";"-";"-"
112;7;"Pinotepa_Nacional_Mexico";-98.05532;16.33847;"Pinotepa_Nacional_Mexico";"tx90p-1";"pdsisc-1";"coastalflood-1";"carbonprice-1";"zindex-3";"-";"-"
113;7;"Cuernavaca_Mexico";-99.22646;18.94201;"Cuernavaca_Mexico";"tx90p-1";"pdsisc-1";"coastalflood-1";"carbonprice-1";"zindex-3";"-";"-"
114;7;"Los_Reyes_Acaquilpan_Mexico";-98.977177;19.358535;"Los_Reyes_Acaquilpan_Mexico";"tx90p-1";"pdsisc-1";"coastalflood-1";"carbonprice-1";"zindex-3";"-";"-"
115;7;"Cuautitlan_Izcalli_Mexico";-99.21598;19.64388;"Cuautitlan_Izcalli_Mexico";"tx90p-1";"pdsisc-1";"coastalflood-1";"carbonprice-1";"zindex-3";"-";"-"
116;7;"Tepotzotlan_Mexico";-99.2237;19.71981;"Tepotzotlan_Mexico";"tx90p-1";"pdsisc-1";"coastalflood-1";"carbonprice-1";"zindex-3";"-";"-"
117;7;"Altamira_Mexico";-97.891382;22.375734;"Altamira_Mexico";"tx90p-1";"pdsisc-1";"coastalflood-1";"carbonprice-1";"zindex-3";"-";"-"
118;7;"Morelia_Mexico";-101.18443;19.70078;"Morelia_Mexico";"tx90p-1";"pdsisc-1";"coastalflood-1";"carbonprice-1";"zindex-3";"-";"-"
119;7;"Cuajimalpa_de_Morelos_Mexico";-99.29388;19.35993;"Cuajimalpa_de_Morelos_Mexico";"tx90p-1";"pdsisc-1";"coastalflood-1";"carbonprice-1";"zindex-3";"-";"-"
120;7;"Toluca_Mexico";-99.65324;19.28786;"Toluca_Mexico";"tx90p-1";"pdsisc-1";"coastalflood-1";"carbonprice-1";"zindex-3";"-";"-"
121;7;"Tocancipa_Colombia";-73.91301;4.96531;"Tocancipa_Colombia";"tx90p-1";"pdsisc-1";"coastalflood-1";"carbonprice-1";"zindex-3";"-";"-"
122;7;"Manantial_Colombia";-74.05;9.33333;"Manantial_Colombia";"tx90p-1";"pdsisc-1";"coastalflood-1";"carbonprice-1";"zindex-3";"-";"-"
123;7;"Barranquilla_Colombia";-74.78132;10.96854;"Barranquilla_Colombia";"tx90p-1";"pdsisc-1";"coastalflood-1";"carbonprice-1";"zindex-3";"-";"-"
124;7;"Bucaramanga_Colombia";-73.1198;7.12539;"Bucaramanga_Colombia";"tx90p-1";"pdsisc-1";"coastalflood-1";"carbonprice-1";"zindex-3";"-";"-"
125;7;"Medellin_Colombia";-75.56359;6.25184;"Medellin_Colombia";"tx90p-1";"pdsisc-1";"coastalflood-1";"carbonprice-1";"zindex-3";"-";"-"
126;7;"Santiago_de_Cali_Colombia";-76.5225;3.43722;"Santiago_de_Cali_Colombia";"tx90p-1";"pdsisc-1";"coastalflood-1";"carbonprice-1";"zindex-3";"-";"-"
127;7;"Bogota_Colombia";-74.08175;4.60971;"Bogota_Colombia";"tx90p-1";"pdsisc-1";"coastalflood-1";"carbonprice-1";"zindex-3";"-";"-"
128;7;"Ilocos_Philippines";120.5208;16.97917;"Ilocos_Philippines";"tx90p-1";"pdsisc-1";"coastalflood-1";"carbonprice-1";"zindex-3";"-";"-"
129;7;"Ilagan_Philippines";122.06667;17.16667;"Ilagan_Philippines";"tx90p-1";"pdsisc-1";"coastalflood-1";"carbonprice-1";"zindex-3";"-";"-"
130;7;"San_Fernando_Philippines";120.6898;15.0286;"San_Fernando_Philippines";"tx90p-1";"pdsisc-1";"coastalflood-1";"carbonprice-1";"zindex-3";"-";"-"
131;7;"Meycauayan_Philippines";120.96083;14.73694;"Meycauayan_Philippines";"tx90p-1";"pdsisc-1";"coastalflood-1";"carbonprice-1";"zindex-3";"-";"-"
132;7;"Naga_Philippines";123.18333;13.61667;"Naga_Philippines";"tx90p-1";"pdsisc-1";"coastalflood-1";"carbonprice-1";"zindex-3";"-";"-"
133;7;"Tacloban_Philippines";125.000001;11.25;"Tacloban_Philippines";"tx90p-1";"pdsisc-1";"coastalflood-1";"carbonprice-1";"zindex-3";"-";"-"
134;7;"Mandaue_Philippines";123.93333;10.33333;"Mandaue_Philippines";"tx90p-1";"pdsisc-1";"coastalflood-1";"carbonprice-1";"zindex-3";"-";"-"
135;7;"Bacolod_Philippines";122.95;10.66667;"Bacolod_Philippines";"tx90p-1";"pdsisc-1";"coastalflood-1";"carbonprice-1";"zindex-3";"-";"-"
136;7;"Iloilo_Philippines";122.5644;10.69694;"Iloilo_Philippines";"tx90p-1";"pdsisc-1";"coastalflood-1";"carbonprice-1";"zindex-3";"-";"-"
137;7;"Tagbilaran_Philippines";123.85219;9.65556;"Tagbilaran_Philippines";"tx90p-1";"pdsisc-1";"coastalflood-1";"carbonprice-1";"zindex-3";"-";"-"
138;7;"Misasmis_Oriental_Philippines";125.000001;8.75;"Misasmis_Oriental_Philippines";"tx90p-1";"pdsisc-1";"coastalflood-1";"carbonprice-1";"zindex-3";"-";"-"
139;7;"Davao_Philippines";125.59845;7.06955;"Davao_Philippines";"tx90p-1";"pdsisc-1";"coastalflood-1";"carbonprice-1";"zindex-3";"-";"-"
140;7;"Zamboanga_Philippines";122.66667;8.000001;"Zamboanga_Philippines";"tx90p-1";"pdsisc-1";"coastalflood-1";"carbonprice-1";"zindex-3";"-";"-"
141;7;"Imus_Philippines";120.93667;14.42972;"Imus_Philippines";"tx90p-1";"pdsisc-1";"coastalflood-1";"carbonprice-1";"zindex-3";"-";"-"
142;7;"Santa_Rosa_Philippines";121.11139;14.31222;"Santa_Rosa_Philippines";"tx90p-1";"pdsisc-1";"coastalflood-1";"carbonprice-1";"zindex-3";"-";"-"
143;7;"Calamba_Philippines";121.16528;14.21167;"Calamba_Philippines";"tx90p-1";"pdsisc-1";"coastalflood-1";"carbonprice-1";"zindex-3";"-";"-"
144;7;"Monte_Grande_Argentina";-58.45625;-34.81844;"Monte_Grande_Argentina";"tx90p-1";"pdsisc-1";"coastalflood-1";"carbonprice-1";"zindex-3";"-";"-"
145;7;"Maracaibo_Venezuela";-71.638041;10.718417;"Maracaibo_Venezuela";"tx90p-1";"pdsisc-1";"coastalflood-1";"carbonprice-1";"zindex-3";"-";"-"
146;7;"Valencia_Venezuela";-68.00765;10.16202;"Valencia_Venezuela";"tx90p-1";"pdsisc-1";"coastalflood-1";"carbonprice-1";"zindex-3";"-";"-"
147;7;"Antimano_Venezuela";-66.97426;10.46642;"Antimano_Venezuela";"tx90p-1";"pdsisc-1";"coastalflood-1";"carbonprice-1";"zindex-3";"-";"-"
148;7;"Barcelona_Venezuela";-64.7;10.13333;"Barcelona_Venezuela";"tx90p-1";"pdsisc-1";"coastalflood-1";"carbonprice-1";"zindex-3";"-";"-"
149;7;"San_Jose_Costa_Rica";-84.08333;9.93333;"San_Jose_Costa_Rica";"tx90p-1";"pdsisc-1";"coastalflood-1";"carbonprice-1";"zindex-3";"-";"-"
150;7;"Coronado_Costa_Rica";-83.61919;9.04608;"Coronado_Costa_Rica";"tx90p-1";"pdsisc-1";"coastalflood-1";"carbonprice-1";"zindex-3";"-";"-"
151;7;"Panama_City_Panama";-79.51973;8.9936;"Panama_City_Panama";"tx90p-1";"pdsisc-1";"coastalflood-1";"carbonprice-1";"zindex-3";"-";"-"
152;8;"Kerry_Ireland";-9.711775;52.265487;"Kerry_Ireland";"tx90p-1";"pdsisc-1";"coastalflood-1";"carbonprice-1";"zindex-3";"-";"-"
153;8;"Grasse_France";6.949695;43.650097;"Grasse_France";"tx90p-1";"pdsisc-1";"coastalflood-1";"carbonprice-1";"zindex-3";"-";"-"
154;8;"Guanajuato_Mexico";-101.254407;20.616848;"Guanajuato_Mexico";"tx90p-1";"pdsisc-1";"coastalflood-1";"carbonprice-1";"zindex-3";"-";"-"
155;8;"LapulapuCity_Cebu_Philipines";123.983184;10.328115;"LapulapuCity_Cebu_Philipines";"tx90p-1";"pdsisc-1";"coastalflood-1";"carbonprice-1";"zindex-3";"-";"-"
156;8;"Singapore";103.793181;1.30251;"Singapore";"tx90p-1";"pdsisc-1";"coastalflood-1";"carbonprice-1";"zindex-3";"-";"-"
157;8;"Lake_Zuirich_Illinois_USA";-88.070693;42.209145;"Lake_Zuirich_Illinois_USA";"tx90p-1";"pdsisc-1";"coastalflood-1";"carbonprice-1";"zindex-3";"-";"-"
158;8;"Manaus_Brazil";-60.065284;-3.094512;"Manaus_Brazil";"tx90p-1";"pdsisc-1";"coastalflood-1";"carbonprice-1";"zindex-3";"-";"-"
159;8;"Western_Cape_South_Africa";18.5229;-33.869436;"Western_Cape_South_Africa";"tx90p-1";"pdsisc-1";"coastalflood-1";"carbonprice-1";"zindex-3";"-";"-"
160;8;"Sydney_Australia";151.055741;-33.832175;"Sydney_Australia";"tx90p-1";"pdsisc-1";"coastalflood-1";"carbonprice-1";"zindex-3";"-";"-"
161;8;"Bangalore_india";77.682396;12.924847;"Bangalore_india";"tx90p-1";"pdsisc-1";"coastalflood-1";"carbonprice-1";"zindex-3";"-";"-"
162;8;"Los_Angeles_USA";-118.140261;34.008067;"Los_Angeles_USA";"tx90p-1";"pdsisc-1";"coastalflood-1";"carbonprice-1";"zindex-3";"-";"-"
163;8;"Pontevedra_Spain";-8.625368;42.133887;"Pontevedra_Spain";"tx90p-1";"pdsisc-1";"coastalflood-1";"carbonprice-1";"zindex-3";"-";"-"
164;9;"801_Brickell_Miami_USA";-80.1921546;25.7657679;"Miami_FL_USA";"tx90p-1";"pdsisc-3";"coastalflood-1";"carbonprice-1";"zindex-3";"-";"-"
165;9;"Xanadu_Centre_Madrid_Spain";-3.9283784;40.2997836;"Madrid_Spain";"tx90p-1";"pdsisc-3";"coastalflood-1";"carbonprice-1";"zindex-3";"-";"-"
166;9;"Ginza_1_Chome_Tokyo_Japan";139.7675366;35.6739389;"Tokyo_Japan";"tx90p-1";"pdsisc-3";"coastalflood-1";"carbonprice-1";"zindex-3";"-";"-"
167;10;"Berkeley_County_SC";-80.038902;33.072608;"Berkeley_County_SC";"tx90p-1";"pdsisc-3";"coastalflood-1";"carbonprice-1";"zindex-3";"-";"-"
168;10;"Council_Bluffs_Iowa";-95.86395;41.221155;"Council_Bluffs_Iowa";"tx90p-1";"pdsisc-3";"coastalflood-1";"carbonprice-1";"zindex-3";"-";"-"
169;10;"Douglas_County_Georgia";-84.584431;33.749441;"Douglas_County_Georgia";"tx90p-1";"pdsisc-3";"coastalflood-1";"carbonprice-1";"zindex-3";"-";"-"
170;10;"Jackson_County_Alabama";-85.755;34.884166;"Jackson_County_Alabama";"tx90p-1";"pdsisc-3";"coastalflood-1";"carbonprice-1";"zindex-3";"-";"-"
171;10;"Lenoir_NC";-81.547392;35.898338;"Lenoir_NC";"tx90p-1";"pdsisc-3";"coastalflood-1";"carbonprice-1";"zindex-3";"-";"-"
172;10;"Mayes_County_Oklahoma";-95.289139;36.247012;"Mayes_County_Oklahoma";"tx90p-1";"pdsisc-3";"coastalflood-1";"carbonprice-1";"zindex-3";"-";"-"
173;10;"Montgomery_County_TN";-87.263903;36.619558;"Montgomery_County_TN";"tx90p-1";"pdsisc-3";"coastalflood-1";"carbonprice-1";"zindex-3";"-";"-"
174;10;"The_Dalles_Oregon";-121.201007;45.632205;"The_Dalles_Oregon";"tx90p-1";"pdsisc-3";"coastalflood-1";"carbonprice-1";"zindex-3";"-";"-"
175;10;"Quilicura_Chile";-70.69779;-33.358657;"Quilicura_Chile";"tx90p-1";"pdsisc-3";"coastalflood-1";"carbonprice-1";"zindex-3";"-";"-"
176;10;"Dublin_Ireland";-6.450906;53.314868;"Dublin_Ireland";"tx90p-1";"pdsisc-3";"coastalflood-1";"carbonprice-1";"zindex-3";"-";"-"
177;10;"Eemshaven_Netherlands";6.860144;53.425261;"Eemshaven_Netherlands";"tx90p-1";"pdsisc-3";"coastalflood-1";"carbonprice-1";"zindex-3";"-";"-"
178;10;"Hamina_Finland";27.124637;60.540053;"Hamina_Finland";"tx90p-1";"pdsisc-3";"coastalflood-1";"carbonprice-1";"zindex-3";"-";"-"
179;10;"St_Ghislain_Belgium";3.865439;50.469328;"St_Ghislain_Belgium";"tx90p-1";"pdsisc-3";"coastalflood-1";"carbonprice-1";"zindex-3";"-";"-"
180;10;"Changhua_County_Taiwan";120.425463;24.13912;"Changhua_County,_Taiwan";"tx90p-1";"pdsisc-3";"coastalflood-1";"carbonprice-1";"zindex-3";"-";"-"
181;10;"Singapore";103.709625;1.351458;"Singapore";"tx90p-1";"pdsisc-3";"coastalflood-1";"carbonprice-1";"zindex-3";"-";"-"
182;11;"Ashburn_VA";-77.44567;39.050527;"Ashburn_VA";"tx90p-1";"pdsisc-3";"coastalflood-1";"carbonprice-1";"zindex-3";"-";"-"
183;11;"Highlands_Ranch_CO";-104.994438;39.553727;"Highlands_Ranch_CO";"tx90p-1";"pdsisc-3";"coastalflood-1";"carbonprice-1";"zindex-3";"-";"-"
184;11;"London_UK";-0.018951;51.496931;"London_UK";"tx90p-1";"pdsisc-3";"coastalflood-1";"carbonprice-1";"zindex-3";"-";"-"
185;11;"Singapore";103.968438;1.370794;"Singapore";"tx90p-1";"pdsisc-3";"coastalflood-1";"carbonprice-1";"zindex-3";"-";"-"
186;12;"Singapore";103.852436;1.282526;"Singapore";"tx90p-1";"pdsisc-3";"coastalflood-1";"carbonprice-1";"zindex-3";"-";"-"
187;12;"Hong_Kong";114.118611;22.367843;"Hong_Kong";"tx90p-1";"pdsisc-3";"coastalflood-1";"carbonprice-1";"zindex-3";"-";"-"
188;12;"Melbourne_Australia";144.963327;-37.813621;"Melbourne_Australia";"tx90p-1";"pdsisc-3";"coastalflood-1";"carbonprice-1";"zindex-3";"-";"-"
189;12;"Sydney_Australia";151.20902;-33.868666;"Sydney_Australia";"tx90p-1";"pdsisc-3";"coastalflood-1";"carbonprice-1";"zindex-3";"-";"-"
190;12;"Sao_Paulo_Brazil";-46.696733;-23.60788;"Sao_Paulo_Brazil";"tx90p-1";"pdsisc-3";"coastalflood-1";"carbonprice-1";"zindex-3";"-";"-"
191;12;"Saitama_Japan";139.649396;35.858136;"Saitama_Japan";"tx90p-1";"pdsisc-3";"coastalflood-1";"carbonprice-1";"zindex-3";"-";"-"
192;12;"Osaka_Japan";135.501908;34.693985;"Osaka_Japan";"tx90p-1";"pdsisc-3";"coastalflood-1";"carbonprice-1";"zindex-3";"-";"-"
193;12;"Dublin_Ireland";-6.19661;53.269382;"Dublin_Ireland";"tx90p-1";"pdsisc-3";"coastalflood-1";"carbonprice-1";"zindex-3";"-";"-"
194;12;"Ashburn_Virginia";-77.47134;39.01147;"Ashburn_Virginia";"tx90p-1";"pdsisc-3";"coastalflood-1";"carbonprice-1";"zindex-3";"-";"-"
195;12;"Chicago_Illinois";-87.618344;41.853767;"Chicago_Illinois";"tx90p-1";"pdsisc-3";"coastalflood-1";"carbonprice-1";"zindex-3";"-";"-"
196;13;"Prineville_Oregon";-120.875123;44.289468;"Prineville_Oregon";"tx90p-1";"pdsisc-3";"coastalflood-1";"carbonprice-1";"zindex-3";"-";"-"
197;13;"Reno_NV";-119.548556;39.567252;"Reno_NV";"tx90p-1";"pdsisc-3";"coastalflood-1";"carbonprice-1";"zindex-3";"-";"-"
198;13;"Maiden_NC";-81.257734;35.589245;"Maiden_NC";"tx90p-1";"pdsisc-3";"coastalflood-1";"carbonprice-1";"zindex-3";"-";"-"
199;13;"Santa_Clara_CA";-121.943483;37.360923;"Santa_Clara_CA";"tx90p-1";"pdsisc-3";"coastalflood-1";"carbonprice-1";"zindex-3";"-";"-"
200;13;"Mesa_AZ";-111.604145;33.34712;"Mesa_AZ";"tx90p-1";"pdsisc-3";"coastalflood-1";"carbonprice-1";"zindex-3";"-";"-"
201;13;"Waukee_Iowa";-93.930997;41.611735;"Waukee_Iowa";"tx90p-1";"pdsisc-3";"coastalflood-1";"carbonprice-1";"zindex-3";"-";"-"
202;13;"Viborg_Denmark";9.570882;56.482218;"Viborg_Denmark";"tx90p-1";"pdsisc-3";"coastalflood-1";"carbonprice-1";"zindex-3";"-";"-"
203;13;"Aabenraa_Denmark";9.163523;55.036608;"Aabenraa_Denmark";"tx90p-1";"pdsisc-3";"coastalflood-1";"carbonprice-1";"zindex-3";"-";"-"
204;13;"Ulanqab_China";113.169205;41.016269;"Ulanqab_China";"tx90p-1";"pdsisc-3";"coastalflood-1";"carbonprice-1";"zindex-3";"-";"-"
205;13;"Guizhou_China";106.66086;26.422518;"Guizhou_China";"tx90p-1";"pdsisc-3";"coastalflood-1";"carbonprice-1";"zindex-3";"-";"-"
206;14;"Puebla_Mexico";-98.252285;19.123754;"Puebla_Mexico";"tx90p-1";"pdsisc-3";"coastalflood-1";"carbonprice-1";"zindex-3";"-";"-"
207;14;"Uitenhage_South_Africa";25.419024;-33.786427;"Uitenhage_South_Africa";"tx90p-1";"pdsisc-3";"coastalflood-1";"carbonprice-1";"zindex-3";"-";"-"
208;14;"Chattanooga_TN";-85.134299;35.079014;"Chattanooga_TN";"tx90p-1";"pdsisc-3";"coastalflood-1";"carbonprice-1";"zindex-3";"-";"-"
209;14;"Pamela_Portugal";-8.9868;38.583533;"Pamela_Portugal";"tx90p-1";"pdsisc-3";"coastalflood-1";"carbonprice-1";"zindex-3";"-";"-"
210;14;"Chakan_India";73.81944;18.747465;"Chakan_India";"tx90p-1";"pdsisc-3";"coastalflood-1";"carbonprice-1";"zindex-3";"-";"-"
211;14;"Taubate_Brazil";-45.635584;-23.058839;"Taubate_Brazil";"tx90p-1";"pdsisc-3";"coastalflood-1";"carbonprice-1";"zindex-3";"-";"-"
212;14;"Sao_Bernardo_Brazil";-46.547063;-23.736335;"Sao_Bernardo_Brazil";"tx90p-1";"pdsisc-3";"coastalflood-1";"carbonprice-1";"zindex-3";"-";"-"
213;14;"Sao_Jose_dos_Pinhais_Brazil";-49.176683;-25.667688;"Sao_Jose_dos_Pinhais_Brazil";"tx90p-1";"pdsisc-3";"coastalflood-1";"carbonprice-1";"zindex-3";"-";"-"
214;14;"Sao_Carlos_Brazil";-47.87212;-22.063892;"Sao_Carlos_Brazil";"tx90p-1";"pdsisc-3";"coastalflood-1";"carbonprice-1";"zindex-3";"-";"-"
215;14;"Cordoba_Argentina";-64.166239;-31.464431;"Cordoba_Argentina";"tx90p-1";"pdsisc-3";"coastalflood-1";"carbonprice-1";"zindex-3";"-";"-"
216;14;"Pacheco_Argentina";-58.691611;-34.442713;"Pacheco_Argentina";"tx90p-1";"pdsisc-3";"coastalflood-1";"carbonprice-1";"zindex-3";"-";"-"
217;14;"Braunschweig_Germany";10.522778;52.293327;"Braunschweig_Germany";"tx90p-1";"pdsisc-3";"coastalflood-1";"carbonprice-1";"zindex-3";"-";"-"
218;14;"Chemnitz_Germany";12.906514;50.803994;"Chemnitz_Germany";"tx90p-1";"pdsisc-3";"coastalflood-1";"carbonprice-1";"zindex-3";"-";"-"
219;14;"Dresden_Germany";13.755827;51.044463;"Dresden_Germany";"tx90p-1";"pdsisc-3";"coastalflood-1";"carbonprice-1";"zindex-3";"-";"-"
220;14;"Emden_Germany";7.158232;53.348045;"Emden_Germany";"tx90p-1";"pdsisc-3";"coastalflood-1";"carbonprice-1";"zindex-3";"-";"-"
221;14;"Hannover_Germany";9.668604;52.417808;"Hannover_Germany";"tx90p-1";"pdsisc-3";"coastalflood-1";"carbonprice-1";"zindex-3";"-";"-"
222;14;"Kassel_Germany";9.4341;51.257675;"Kassel_Germany";"tx90p-1";"pdsisc-3";"coastalflood-1";"carbonprice-1";"zindex-3";"-";"-"
223;14;"Osnabruck_Germany";8.077907;52.265776;"Osnabruck_Germany";"tx90p-1";"pdsisc-3";"coastalflood-1";"carbonprice-1";"zindex-3";"-";"-"
224;14;"Salzgitter_Germany";10.444816;52.181466;"Salzgitter_Germany";"tx90p-1";"pdsisc-3";"coastalflood-1";"carbonprice-1";"zindex-3";"-";"-"
225;14;"Wolfsburg_Germany";10.775997;52.434187;"Wolfsburg_Germany";"tx90p-1";"pdsisc-3";"coastalflood-1";"carbonprice-1";"zindex-3";"-";"-"
226;14;"Zwickau_Germany";12.475316;50.731334;"Zwickau_Germany";"tx90p-1";"pdsisc-3";"coastalflood-1";"carbonprice-1";"zindex-3";"-";"-"
227;15;"Los_Angeles_CA";-118.2509995;34.0621986;"Los_Angeles_CA";"tx90p-1";"pdsisc-3";"coastalflood-1";"carbonprice-1";"zindex-3";"-";"-"
228;15;"Richmond_VA";-77.464631;37.630818;"Richmond_VA";"tx90p-1";"pdsisc-3";"coastalflood-1";"carbonprice-1";"zindex-3";"-";"-"
229;15;"Richardson_TX";-96.707159;32.985838;"Richardson_TX";"tx90p-1";"pdsisc-3";"coastalflood-1";"carbonprice-1";"zindex-3";"-";"-"
230;16;"GrandPrairie_TX";-97.05287;32.699785;"GrandPrairie_TX_Helicopter_Engines";"tx90p-1";"pdsisc-3";"coastalflood-1";"carbonprice-1";"zindex-3";"-";"-"
231;16;"CostaMesa_CA";-117.872625;33.684592;"CostaMesa_CA_Avionics";"tx90p-1";"pdsisc-3";"coastalflood-1";"carbonprice-1";"zindex-3";"-";"-"
232;16;"Everett_WA";-122.246479;47.930019;"Everett_WA_LandingSystems";"tx90p-1";"pdsisc-3";"coastalflood-1";"carbonprice-1";"zindex-3";"-";"-"
233;16;"Walton_KY";-84.609567;38.92358;"Walton_KY_LandingSystems";"tx90p-1";"pdsisc-3";"coastalflood-1";"carbonprice-1";"zindex-3";"-";"-"
234;16;"Ashburn_VA";-77.487328;39.069635;"Ashburn_VA_Vectronix";"tx90p-1";"pdsisc-3";"coastalflood-1";"carbonprice-1";"zindex-3";"-";"-"
235;16;"Toronto_Canada";-79.024158;43.835936;"Toronto_Canada_LandingSystems";"tx90p-1";"pdsisc-3";"coastalflood-1";"carbonprice-1";"zindex-3";"-";"-"
236;16;"Bedford_NH";-71.508251;42.961102;"Bedfore_NH_Vectronix";"tx90p-1";"pdsisc-3";"coastalflood-1";"carbonprice-1";"zindex-3";"-";"-"
237;16;"Rochester_NH";-70.914762;43.282378;"Rochester_NH_AeroComposites";"tx90p-1";"pdsisc-3";"coastalflood-1";"carbonprice-1";"zindex-3";"-";"-"
238;16;"Queretaro_Mexico";-100.167277;20.618443;"Queretaro_Mexico_LandingSystems";"tx90p-1";"pdsisc-3";"coastalflood-1";"carbonprice-1";"zindex-3";"-";"-"
239;16;"Chihuahua_Mexico";-106.115896;28.715804;"Chihuahua_Mexico_Eletrical_Power";"tx90p-1";"pdsisc-3";"coastalflood-1";"carbonprice-1";"zindex-3";"-";"-"
240;16;"Xerem_Brazil";-43.300624;-22.61393;"Xerem_Brazil_Helicopter_Engines";"tx90p-1";"pdsisc-3";"coastalflood-1";"carbonprice-1";"zindex-3";"-";"-"
241;16;"SaoJose_dosCampos_Brazil";-45.952769;-23.208467;"SaoJose_dosCampos_Brazil";"tx90p-1";"pdsisc-3";"coastalflood-1";"carbonprice-1";"zindex-3";"-";"-"
242;16;"Bankstown_Australia";150.996135;-33.923194;"Bankstown_Australia_Helicopter_Engines";"tx90p-1";"pdsisc-3";"coastalflood-1";"carbonprice-1";"zindex-3";"-";"-"
243;16;"Singapore_LandingSystems";103.9708;1.382721;"Singapore_LandingSystems";"tx90p-1";"pdsisc-3";"coastalflood-1";"carbonprice-1";"zindex-3";"-";"-"
244;16;"Singapore_HeloEngines";103.857985;1.402867;"Singapore_HeloEngines";"tx90p-1";"pdsisc-3";"coastalflood-1";"carbonprice-1";"zindex-3";"-";"-"
245;16;"Negeri_Sembilan_Malaysia";101.831389;2.676122;"Negeri_Sembilan_Malaysia_LandingSystems";"tx90p-1";"pdsisc-3";"coastalflood-1";"carbonprice-1";"zindex-3";"-";"-"
246;16;"Komsomolsk_Russia";137.030086;50.538521;"Komsomolsk_Russia";"tx90p-1";"pdsisc-3";"coastalflood-1";"carbonprice-1";"zindex-3";"-";"-"
247;16;"Beijing_China";116.460798;39.950359;"Beijing_China_HeloEngines";"tx90p-1";"pdsisc-3";"coastalflood-1";"carbonprice-1";"zindex-3";"-";"-"
248;16;"Guizhou_China";106.628068;26.618996;"Guizhou_China";"tx90p-1";"pdsisc-3";"coastalflood-1";"carbonprice-1";"zindex-3";"-";"-"
249;16;"Suzhou_China_LandingSystems";120.836454;31.339154;"Suzhou_China_LandingSystems";"tx90p-1";"pdsisc-3";"coastalflood-1";"carbonprice-1";"zindex-3";"-";"-"
250;16;"Suzhou_China_AircraftEngines";120.332169;31.586589;"Suzhou_China_AircraftEngines";"tx90p-1";"pdsisc-3";"coastalflood-1";"carbonprice-1";"zindex-3";"-";"-"
251;16;"Temara_Morocco";-6.897242;33.930509;"Temara_Morocco_Power";"tx90p-1";"pdsisc-3";"coastalflood-1";"carbonprice-1";"zindex-3";"-";"-"
252;16;"Casablanca_Morocco";-7.574861;33.368748;"Casablanca_Morocco";"tx90p-1";"pdsisc-3";"coastalflood-1";"carbonprice-1";"zindex-3";"-";"-"
253;16;"Burnley_UK";-2.21936;53.801454;"Burnley_UK";"tx90p-1";"pdsisc-3";"coastalflood-1";"carbonprice-1";"zindex-3";"-";"-"
254;16;"Gloucester_UK";-2.173818;51.898057;"Gloucester_UK_LandingSystems";"tx90p-1";"pdsisc-3";"coastalflood-1";"carbonprice-1";"zindex-3";"-";"-"
255;16;"Pitstone_Green_UK";-0.648735;51.828143;"Pitstone_Green_UK_Power";"tx90p-1";"pdsisc-3";"coastalflood-1";"carbonprice-1";"zindex-3";"-";"-"
256;16;"Fareham_UK";-1.248904;50.871503;"Fareham_UK_HeloEngines";"tx90p-1";"pdsisc-3";"coastalflood-1";"carbonprice-1";"zindex-3";"-";"-"
257;16;"Hamburg_Germany_HeloEngines";9.98329;53.604833;"Hamburg_Germany_HeloEngines";"tx90p-1";"pdsisc-3";"coastalflood-1";"carbonprice-1";"zindex-3";"-";"-"
258;16;"Hamburg_Germany_Nacelles";9.906186;53.478998;"Hamburg_Germany_Nacelles";"tx90p-1";"pdsisc-3";"coastalflood-1";"carbonprice-1";"zindex-3";"-";"-"
259;16;"Herstal_Belgium";5.582486;50.686291;"Herstal_Belgium_AeroBoosters";"tx90p-1";"pdsisc-3";"coastalflood-1";"carbonprice-1";"zindex-3";"-";"-"
260;16;"Commercy_France";5.600193;48.748761;"Commercy_France_AeroComposite";"tx90p-1";"pdsisc-3";"coastalflood-1";"carbonprice-1";"zindex-3";"-";"-"
261;16;"Florange_France";6.127964;49.314391;"Florange_France_Aerostructures";"tx90p-1";"pdsisc-3";"coastalflood-1";"carbonprice-1";"zindex-3";"-";"-"
262;16;"Molsheim_France";7.503014;48.53186;"Molsheim_France_LandingSystems";"tx90p-1";"pdsisc-3";"coastalflood-1";"carbonprice-1";"zindex-3";"-";"-"
263;16;"Vernon_France";1.497584;49.110957;"Vernon_France_AcftEngines";"tx90p-1";"pdsisc-3";"coastalflood-1";"carbonprice-1";"zindex-3";"-";"-"
264;16;"Buchelay_France";1.667026;48.990408;"Buchelay_France_HeloEngines";"tx90p-1";"pdsisc-3";"coastalflood-1";"carbonprice-1";"zindex-3";"-";"-"
265;16;"Mantes_La_Ville_France";1.708136;48.982239;"Mantes_La_Ville_France";"tx90p-1";"pdsisc-3";"coastalflood-1";"carbonprice-1";"zindex-3";"-";"-"
266;16;"Eragny_France";2.111132;49.026496;"Eragny_France";"tx90p-1";"pdsisc-3";"coastalflood-1";"carbonprice-1";"zindex-3";"-";"-"
267;16;"Gennevilliers_France";2.257242;48.937874;"Gennevilliers_France_AcftEngines";"tx90p-1";"pdsisc-3";"coastalflood-1";"carbonprice-1";"zindex-3";"-";"-"
268;16;"Saint_Quentin_France";2.066976;48.754483;"Saint_Quentin_France_AcftEngines";"tx90p-1";"pdsisc-3";"coastalflood-1";"carbonprice-1";"zindex-3";"-";"-"
269;16;"Massy_France";2.266513;48.724623;"Massy_France_Electronics";"tx90p-1";"pdsisc-3";"coastalflood-1";"carbonprice-1";"zindex-3";"-";"-"
270;16;"Fougeres_France";-1.1792;48.341538;"Fougeres_France_Electronics";"tx90p-1";"pdsisc-3";"coastalflood-1";"carbonprice-1";"zindex-3";"-";"-"
271;16;"Montflucon_France";2.578218;46.36428;"Montflucon_France_Electronics";"tx90p-1";"pdsisc-3";"coastalflood-1";"carbonprice-1";"zindex-3";"-";"-"
272;16;"Chatellerault_France";0.547757;46.847376;"Chatellerault_France_AcftEngines";"tx90p-1";"pdsisc-3";"coastalflood-1";"carbonprice-1";"zindex-3";"-";"-"
273;16;"Poitiers_France";0.331301;46.55163;"Poitiers_France_Electronics";"tx90p-1";"pdsisc-3";"coastalflood-1";"carbonprice-1";"zindex-3";"-";"-"
274;16;"Villeurbanne_France";4.912478;45.757011;"Villeurbanne_France_LandingSystems";"tx90p-1";"pdsisc-3";"coastalflood-1";"carbonprice-1";"zindex-3";"-";"-"
275;16;"Valence_France";4.92027;44.939267;"Valence_France_Electronics";"tx90p-1";"pdsisc-3";"coastalflood-1";"carbonprice-1";"zindex-3";"-";"-"
276;16;"Istres_France";4.929841;43.52459;"Istres_France_AcftEngines";"tx90p-1";"pdsisc-3";"coastalflood-1";"carbonprice-1";"zindex-3";"-";"-"
277;16;"Colomiers_France";1.346246;43.62494;"Colomiers_France_Nacelles";"tx90p-1";"pdsisc-3";"coastalflood-1";"carbonprice-1";"zindex-3";"-";"-"
278;16;"Tarnos_France";-1.494318;43.547445;"Tarnos_France_HeloEngines";"tx90p-1";"pdsisc-3";"coastalflood-1";"carbonprice-1";"zindex-3";"-";"-"
279;16;"Bidos_France";-0.608181;43.179895;"Bidos_France_LandingSystems";"tx90p-1";"pdsisc-3";"coastalflood-1";"carbonprice-1";"zindex-3";"-";"-"
280;17;"Alberquerque_NM";-106.640314;35.04405;"Albuquerque_NM_Branch";"tx90p-1";"pdsisc-3";"coastalflood-1";"carbonprice-1";"zindex-3";"-";"-"
281;17;"Altoona_PA";-78.428338;40.464548;"Altoona_PA_Branch";"tx90p-1";"pdsisc-3";"coastalflood-1";"carbonprice-1";"zindex-3";"-";"-"
282;17;"Anchorage_AK";-149.871852;61.129483;"Anchorage_AK_Branch";"tx90p-1";"pdsisc-3";"coastalflood-1";"carbonprice-1";"zindex-3";"-";"-"
283;17;"Atlanta_GA";-84.228644;33.913296;"Atlanta_GA_Branch";"tx90p-1";"pdsisc-3";"coastalflood-1";"carbonprice-1";"zindex-3";"-";"-"
284;17;"Cadillac_Atlanta_GA";-84.798898;33.89552;"Cadillac_Atlanta_GA_Branch";"tx90p-1";"pdsisc-3";"coastalflood-1";"carbonprice-1";"zindex-3";"-";"-"
285;17;"Alchemy_Atlanta_GA";-84.258526;33.922142;"Alchemy_Atlanta_GA_Branch";"tx90p-1";"pdsisc-3";"coastalflood-1";"carbonprice-1";"zindex-3";"-";"-"
286;17;"Augusta_GA";-81.985985;33.39929;"Augusta_GA_Branch";"tx90p-1";"pdsisc-3";"coastalflood-1";"carbonprice-1";"zindex-3";"-";"-"
287;17;"Baltimore_MD";-76.576463;39.232533;"Baltimore_MD_Branch";"tx90p-1";"pdsisc-3";"coastalflood-1";"carbonprice-1";"zindex-3";"-";"-"
288;17;"Borger_TX";-101.387392;35.659569;"Borger_TX_Branch";"tx90p-1";"pdsisc-3";"coastalflood-1";"carbonprice-1";"zindex-3";"-";"-"
289;17;"Salem_MA";-70.899303;42.509358;"Salem_MA_Branch";"tx90p-1";"pdsisc-3";"coastalflood-1";"carbonprice-1";"zindex-3";"-";"-"
290;17;"Buffalo_NY";-78.926957;42.977313;"Buffalo_NY_Branch";"tx90p-1";"pdsisc-3";"coastalflood-1";"carbonprice-1";"zindex-3";"-";"-"
291;17;"Burlington_IA";-91.151894;40.828947;"Burlington_IA_Branch";"tx90p-1";"pdsisc-3";"coastalflood-1";"carbonprice-1";"zindex-3";"-";"-"
292;17;"Carlin_NV";-116.060233;40.72545;"Carlin_NV_Branch";"tx90p-1";"pdsisc-3";"coastalflood-1";"carbonprice-1";"zindex-3";"-";"-"
293;17;"Casper_WY";-106.220085;42.85422;"Casper_WY_Branch";"tx90p-1";"pdsisc-3";"coastalflood-1";"carbonprice-1";"zindex-3";"-";"-"
294;17;"Charlotte_NC";-80.933379;35.130487;"Charlotte_NC_Branch";"tx90p-1";"pdsisc-3";"coastalflood-1";"carbonprice-1";"zindex-3";"-";"-"
295;17;"Chattanooga_TN";-85.274276;35.083561;"Chattanooga_TN_Branch";"tx90p-1";"pdsisc-3";"coastalflood-1";"carbonprice-1";"zindex-3";"-";"-"
296;17;"Bellevue_WA";-122.196702;47.614152;"Chempoint_com";"tx90p-1";"pdsisc-3";"coastalflood-1";"carbonprice-1";"zindex-3";"-";"-"
297;17;"Chicago_IL";-87.827588;41.766744;"Chicago_IL_Branch";"tx90p-1";"pdsisc-3";"coastalflood-1";"carbonprice-1";"zindex-3";"-";"-"
298;17;"Chicago_IL2";-87.828972;41.763383;"2Chicage_IL_Branch";"tx90p-1";"pdsisc-3";"coastalflood-1";"carbonprice-1";"zindex-3";"-";"-"
299;17;"Cincinnati_OH";-84.470634;39.313769;"Cincinnati_OH_Branch";"tx90p-1";"pdsisc-3";"coastalflood-1";"carbonprice-1";"zindex-3";"-";"-"
300;17;"Hamilton_OH";-84.510005;39.339982;"Hamilton_OH_Branch";"tx90p-1";"pdsisc-3";"coastalflood-1";"carbonprice-1";"zindex-3";"-";"-"
301;17;"Columbus_OH";-81.46414;41.295035;"Columbus_OH_Branch";"tx90p-1";"pdsisc-3";"coastalflood-1";"carbonprice-1";"zindex-3";"-";"-"
302;17;"Strongsville_OH";-81.864334;41.291155;"Strongsville_OH";"tx90p-1";"pdsisc-3";"coastalflood-1";"carbonprice-1";"zindex-3";"-";"-"
303;17;"Corpus_Christi_TX";-97.462039;27.793219;"Corpus_Christi_TX_Branch";"tx90p-1";"pdsisc-3";"coastalflood-1";"carbonprice-1";"zindex-3";"-";"-"
304;17;"Dallas_TX";-96.69373;32.902913;"Dallas_TC_Branch";"tx90p-1";"pdsisc-3";"coastalflood-1";"carbonprice-1";"zindex-3";"-";"-"
305;17;"Dan_Dallas_TX";-96.917516;32.700874;"Dan_Dallas_TX_Branch";"tx90p-1";"pdsisc-3";"coastalflood-1";"carbonprice-1";"zindex-3";"-";"-"
306;17;"Denver_CO";-104.921484;39.776965;"Denver_CO_Branch";"tx90p-1";"pdsisc-3";"coastalflood-1";"carbonprice-1";"zindex-3";"-";"-"
307;17;"Detroit_MI";-83.402798;42.206796;"Detroit_MI_Branch";"tx90p-1";"pdsisc-3";"coastalflood-1";"carbonprice-1";"zindex-3";"-";"-"
308;17;"Farmington_NM";-108.145664;36.715732;"Farmington_NM_Branch";"tx90p-1";"pdsisc-3";"coastalflood-1";"carbonprice-1";"zindex-3";"-";"-"
309;17;"Fresno_CA";-119.751221;36.718291;"Fresno_CA_Branch";"tx90p-1";"pdsisc-3";"coastalflood-1";"carbonprice-1";"zindex-3";"-";"-"
310;17;"Gonzales_LA";-90.98221;30.180632;"Gonzales_LA_Branch";"tx90p-1";"pdsisc-3";"coastalflood-1";"carbonprice-1";"zindex-3";"-";"-"
311;17;"St_Gabriel_LA";-91.050571;30.218045;"St_Gabriel_LA_Branch";"tx90p-1";"pdsisc-3";"coastalflood-1";"carbonprice-1";"zindex-3";"-";"-"
312;17;"Geneva_NY";-76.98131;42.881927;"Geneva_NY_Branch";"tx90p-1";"pdsisc-3";"coastalflood-1";"carbonprice-1";"zindex-3";"-";"-"
313;17;"Grand_Rapids_MI";-85.675047;42.910437;"Grand_Rapids_MI_Branch";"tx90p-1";"pdsisc-3";"coastalflood-1";"carbonprice-1";"zindex-3";"-";"-"
314;17;"Jamestown_NC";-79.9348;35.992319;"Jamestown_NC_Branch";"tx90p-1";"pdsisc-3";"coastalflood-1";"carbonprice-1";"zindex-3";"-";"-"
315;17;"Harlingten_TX";-97.703623;26.193461;"Harlingten_TX_Branch";"tx90p-1";"pdsisc-3";"coastalflood-1";"carbonprice-1";"zindex-3";"-";"-"
316;17;"Harrisburg_PA";-76.721545;40.192728;"Harrisburg_PA_Branch";"tx90p-1";"pdsisc-3";"coastalflood-1";"carbonprice-1";"zindex-3";"-";"-"
317;17;"Honolulu_HA";-157.911929;21.334475;"Honolulu_HA_Branch";"tx90p-1";"pdsisc-3";"coastalflood-1";"carbonprice-1";"zindex-3";"-";"-"
318;17;"Brisbane_Houston_TX";-95.300607;29.639331;"BrisbaneHouston_TX_Branch";"tx90p-1";"pdsisc-3";"coastalflood-1";"carbonprice-1";"zindex-3";"-";"-"
319;17;"FM_Houston_TX";-95.578465;29.87669;"FMHouston_TX_Branch";"tx90p-1";"pdsisc-3";"coastalflood-1";"carbonprice-1";"zindex-3";"-";"-"
320;17;"Luthe_Houston_TX";-95.371749;29.930158;"LutheHouston_TX_Branch";"tx90p-1";"pdsisc-3";"coastalflood-1";"carbonprice-1";"zindex-3";"-";"-"
321;17;"Indianapolis_IN";-86.036637;39.810285;"Indianapolis_IN_Branch";"tx90p-1";"pdsisc-3";"coastalflood-1";"carbonprice-1";"zindex-3";"-";"-"
322;17;"Jacksonville_FL";-81.742433;30.323567;"Jacksonville_FL_Branch";"tx90p-1";"pdsisc-3";"coastalflood-1";"carbonprice-1";"zindex-3";"-";"-"
323;17;"Johnstown_NY";-74.390655;42.989475;"Johnstown_NY";"tx90p-1";"pdsisc-3";"coastalflood-1";"carbonprice-1";"zindex-3";"-";"-"
324;17;"Kansas_City_MO";-94.558074;39.117858;"Kansas_City_MO_Branch";"tx90p-1";"pdsisc-3";"coastalflood-1";"carbonprice-1";"zindex-3";"-";"-"
325;17;"Kent_WA";-122.230812;47.411086;"Kent_WA_Branch";"tx90p-1";"pdsisc-3";"coastalflood-1";"carbonprice-1";"zindex-3";"-";"-"
326;17;"Lafyette_LA";-92.028706;30.322196;"Lafayette_LA_Branch";"tx90p-1";"pdsisc-3";"coastalflood-1";"carbonprice-1";"zindex-3";"-";"-"
327;17;"Little_Rock_AR";-92.137986;34.883664;"Little_Rock_AR_Branch";"tx90p-1";"pdsisc-3";"coastalflood-1";"carbonprice-1";"zindex-3";"-";"-"
328;17;"Los_Angeles_CA";-118.132975;33.992352;"Los_Angeles_CA_Branch";"tx90p-1";"pdsisc-3";"coastalflood-1";"carbonprice-1";"zindex-3";"-";"-"
329;17;"Santa_Fe_CA";-118.046265;33.905221;"Santa_Fe_CA_Branch";"tx90p-1";"pdsisc-3";"coastalflood-1";"carbonprice-1";"zindex-3";"-";"-"
330;17;"Louisville_KY";-85.753436;38.153637;"Louisville_KY_Branch";"tx90p-1";"pdsisc-3";"coastalflood-1";"carbonprice-1";"zindex-3";"-";"-"
331;17;"Memphis_TN";-89.902479;35.042032;"Memphis_TN_Branch";"tx90p-1";"pdsisc-3";"coastalflood-1";"carbonprice-1";"zindex-3";"-";"-"
332;17;"Milwaukee_WI";-88.12319;43.000063;"Milwaukee_WI_Branch";"tx90p-1";"pdsisc-3";"coastalflood-1";"carbonprice-1";"zindex-3";"-";"-"
333;17;"Mobile_AL";-88.129728;30.657517;"Mobile_AL_Branch";"tx90p-1";"pdsisc-3";"coastalflood-1";"carbonprice-1";"zindex-3";"-";"-"
334;17;"Morrisville_PA";-122.230812;40.169898;"Morrisville_PA_Branch";"tx90p-1";"pdsisc-3";"coastalflood-1";"carbonprice-1";"zindex-3";"-";"-"
335;17;"Steel_Morrisville_RA";-74.762473;40.177668;"SteelMorrisville_PA_Branch";"tx90p-1";"pdsisc-3";"coastalflood-1";"carbonprice-1";"zindex-3";"-";"-"
336;17;"Nampa_IA";-116.544548;43.600946;"Nampa_IA_Branch";"tx90p-1";"pdsisc-3";"coastalflood-1";"carbonprice-1";"zindex-3";"-";"-"
337;17;"Nashville_TN";-86.407188;35.854465;"Nashville_TN_Branch";"tx90p-1";"pdsisc-3";"coastalflood-1";"carbonprice-1";"zindex-3";"-";"-"
338;17;"Odessa_TX";-102.304095;31.872335;"Odessa_TX_Branch";"tx90p-1";"pdsisc-3";"coastalflood-1";"carbonprice-1";"zindex-3";"-";"-"
339;17;"Pronto_Odessa_TX";-102.294464;31.878791;"Pronto_Odessa_TX_Branch";"tx90p-1";"pdsisc-3";"coastalflood-1";"carbonprice-1";"zindex-3";"-";"-"
340;17;"Mesquite_TX";-96.650246;32.769178;"Oilfield_Services";"tx90p-1";"pdsisc-3";"coastalflood-1";"carbonprice-1";"zindex-3";"-";"-"
341;17;"Oil_Oklahoma_City_OK";-97.64132;35.436038;"Oilfeild_Services_4_Branch";"tx90p-1";"pdsisc-3";"coastalflood-1";"carbonprice-1";"zindex-3";"-";"-"
342;17;"Oklahoma_City_OK";-97.653218;35.432418;"Oklahoma_City_OK_Branch";"tx90p-1";"pdsisc-3";"coastalflood-1";"carbonprice-1";"zindex-3";"-";"-"
343;17;"Omaha_NE";-95.956457;41.221309;"Omaha_NE_Branch";"tx90p-1";"pdsisc-3";"coastalflood-1";"carbonprice-1";"zindex-3";"-";"-"
344;17;"Oxnard_CA";-119.154801;34.220755;"Oxnard_CA_Branch";"tx90p-1";"pdsisc-3";"coastalflood-1";"carbonprice-1";"zindex-3";"-";"-"
345;17;"Philedelphia_PA";-74.762551;40.177634;"Philedelphia_PA_Branch";"tx90p-1";"pdsisc-3";"coastalflood-1";"carbonprice-1";"zindex-3";"-";"-"
346;17;"Phoenix_AZ";-112.158016;33.447144;"Phoenix_AZ_Branch";"tx90p-1";"pdsisc-3";"coastalflood-1";"carbonprice-1";"zindex-3";"-";"-"
347;17;"South_Phoenix_Az";-112.116309;33.421742;"South_Phoenix_Az_Branch";"tx90p-1";"pdsisc-3";"coastalflood-1";"carbonprice-1";"zindex-3";"-";"-"
348;17;"Pittsburg_PA";-79.960979;40.236336;"Pittsburg_PA_Branch";"tx90p-1";"pdsisc-3";"coastalflood-1";"carbonprice-1";"zindex-3";"-";"-"
349;17;"Plainfield_IL";-88.22156;41.628511;"Plainfield_IL_Branch";"tx90p-1";"pdsisc-3";"coastalflood-1";"carbonprice-1";"zindex-3";"-";"-"
350;17;"Pocatello_ID";-112.498434;42.900383;"Pocatello_ID_Branch";"tx90p-1";"pdsisc-3";"coastalflood-1";"carbonprice-1";"zindex-3";"-";"-"
351;17;"Portland_OR";-122.722693;45.549561;"Portland_OR_Branch";"tx90p-1";"pdsisc-3";"coastalflood-1";"carbonprice-1";"zindex-3";"-";"-"
352;17;"Providence_RI";-71.392229;41.796674;"Providence_RI_Branch";"tx90p-1";"pdsisc-3";"coastalflood-1";"carbonprice-1";"zindex-3";"-";"-"
353;17;"Redwood_City_CA";-122.210206;37.5066;"Redwood_City_CA_Branch";"tx90p-1";"pdsisc-3";"coastalflood-1";"carbonprice-1";"zindex-3";"-";"-"
354;17;"Richmond_VA";-77.38283;37.343211;"Richmond_VA_Branch";"tx90p-1";"pdsisc-3";"coastalflood-1";"carbonprice-1";"zindex-3";"-";"-"
355;17;"Rock_Springs_WY";-109.218233;41.664434;"Rock_Springs_WY_Branch";"tx90p-1";"pdsisc-3";"coastalflood-1";"carbonprice-1";"zindex-3";"-";"-"
356;17;"Sacramento_CA";-121.462749;38.639842;"Sacramento_CA_Branch";"tx90p-1";"pdsisc-3";"coastalflood-1";"carbonprice-1";"zindex-3";"-";"-"
357;17;"SLC_UT";-111.910022;40.75309;"SLC_UT_Branch";"tx90p-1";"pdsisc-3";"coastalflood-1";"carbonprice-1";"zindex-3";"-";"-"
358;17;"Woods_SLC_UT";-111.911349;40.863663;"Woods_SLC_UT_Branch";"tx90p-1";"pdsisc-3";"coastalflood-1";"carbonprice-1";"zindex-3";"-";"-"
359;17;"San_Antonio_TX";-98.409489;29.439667;"San_Antonio_TX_Branch";"tx90p-1";"pdsisc-3";"coastalflood-1";"carbonprice-1";"zindex-3";"-";"-"
360;17;"San_Diego_CA";-117.11376;32.660873;"San_Diego_CA_Branch";"tx90p-1";"pdsisc-3";"coastalflood-1";"carbonprice-1";"zindex-3";"-";"-"
361;17;"San_Jose_CA";-121.915687;37.387742;"San_Jose_CA_Branch";"tx90p-1";"pdsisc-3";"coastalflood-1";"carbonprice-1";"zindex-3";"-";"-"
362;17;"SantaFe_Springs_CA";-118.061407;33.950162;"SantaFe_Springs_CA_Branch";"tx90p-1";"pdsisc-3";"coastalflood-1";"carbonprice-1";"zindex-3";"-";"-"
363;17;"Spartanburg_SC";-81.858667;34.922773;"Spartanburg_SC_Branch";"tx90p-1";"pdsisc-3";"coastalflood-1";"carbonprice-1";"zindex-3";"-";"-"
364;17;"Spokane_WA";-117.343248;47.669665;"Spokane_WA_Branch";"tx90p-1";"pdsisc-3";"coastalflood-1";"carbonprice-1";"zindex-3";"-";"-"
365;17;"Springfield_MO";-93.250275;37.207765;"Springfield_MO_Branch";"tx90p-1";"pdsisc-3";"coastalflood-1";"carbonprice-1";"zindex-3";"-";"-"
366;17;"StLouis_MO";-90.347661;38.765541;"StLouis_MO_Branch";"tx90p-1";"pdsisc-3";"coastalflood-1";"carbonprice-1";"zindex-3";"-";"-"
367;17;"MH_StLouis_MO";-90.438916;38.717764;"MH_StLouis_MO_Branch";"tx90p-1";"pdsisc-3";"coastalflood-1";"carbonprice-1";"zindex-3";"-";"-"
368;17;"StPaul_MN";-93.086691;44.965353;"StPaul_MN_Branch";"tx90p-1";"pdsisc-3";"coastalflood-1";"carbonprice-1";"zindex-3";"-";"-"
369;17;"Tampa_FL";-82.394844;27.888134;"Tampa_FL_Branch";"tx90p-1";"pdsisc-3";"coastalflood-1";"carbonprice-1";"zindex-3";"-";"-"
370;17;"Toledo_OH";-83.526133;41.594623;"Toledo_OH_Branch";"tx90p-1";"pdsisc-3";"coastalflood-1";"carbonprice-1";"zindex-3";"-";"-"
371;17;"South_Toledo_OH";-83.63768;41.630477;"South_Toledo_OH_Branch";"tx90p-1";"pdsisc-3";"coastalflood-1";"carbonprice-1";"zindex-3";"-";"-"
372;17;"Tulsa_OK";-95.976771;36.218959;"Tulsa_OK_Branch";"tx90p-1";"pdsisc-3";"coastalflood-1";"carbonprice-1";"zindex-3";"-";"-"
373;17;"Visalia_GA";-119.376272;36.350179;"Visalia_GA_Branch";"tx90p-1";"pdsisc-3";"coastalflood-1";"carbonprice-1";"zindex-3";"-";"-"
374;17;"Wichita_KS";-97.32821;37.720176;"Wichita_KS_Branch";"tx90p-1";"pdsisc-3";"coastalflood-1";"carbonprice-1";"zindex-3";"-";"-"
375;17;"Mitry_Mory_FR";2.638921;48.982916;"Mitry_Mory_FR_Branch";"tx90p-1";"pdsisc-3";"coastalflood-1";"carbonprice-1";"zindex-3";"-";"-"
376;17;"Rognac_FR";5.212762;43.502559;"Rognac_FR_Branch";"tx90p-1";"pdsisc-3";"coastalflood-1";"carbonprice-1";"zindex-3";"-";"-"
377;17;"Genas_FR_";4.989543;45.712751;"Genas_FR__Branch";"tx90p-1";"pdsisc-3";"coastalflood-1";"carbonprice-1";"zindex-3";"-";"-"
378;17;"Pierre_Benite_FR";4.833646;45.702332;"Pierre_Benite_FR_Branch";"tx90p-1";"pdsisc-3";"coastalflood-1";"carbonprice-1";"zindex-3";"-";"-"
379;17;"Blanquefort_FR";-0.606733;44.928575;"Blanquefort_FR_Branch";"tx90p-1";"pdsisc-3";"coastalflood-1";"carbonprice-1";"zindex-3";"-";"-"
380;17;"Carquefou_FR";-1.497273;47.272082;"Carquefou_FR_Branch";"tx90p-1";"pdsisc-3";"coastalflood-1";"carbonprice-1";"zindex-3";"-";"-"
381;17;"Garenne_FR";2.319617;48.945191;"Garenne_FR_Branch";"tx90p-1";"pdsisc-3";"coastalflood-1";"carbonprice-1";"zindex-3";"-";"-"
382;17;"Fontenay_FR";2.486696;48.852192;"Fontenay_FR_Branch";"tx90p-1";"pdsisc-3";"coastalflood-1";"carbonprice-1";"zindex-3";"-";"-"
383;17;"Lieusant_FR";2.54574;48.641928;"Lieusant_FR_Branch";"tx90p-1";"pdsisc-3";"coastalflood-1";"carbonprice-1";"zindex-3";"-";"-"
384;17;"Tournais_BLG";3.32732;50.620149;"Tournais_BLG_Branch";"tx90p-1";"pdsisc-3";"coastalflood-1";"carbonprice-1";"zindex-3";"-";"-"
385;17;"North_York_CAN";-79.532845;43.740168;"North_York_CAN_Branch";"tx90p-1";"pdsisc-3";"coastalflood-1";"carbonprice-1";"zindex-3";"-";"-"
386;17;"North_Vancouver_CAN";-123.030763;49.30117;"North_Vancouver_CAN_Branch";"tx90p-1";"pdsisc-3";"coastalflood-1";"carbonprice-1";"zindex-3";"-";"-"
387;17;"Dartmouth_CAN";-63.611686;44.709231;"Dartmouth_CAN_Branch";"tx90p-1";"pdsisc-3";"coastalflood-1";"carbonprice-1";"zindex-3";"-";"-"
388;17;"Salaberry_CAN";-74.107068;45.264984;"Salaberry_CAN_Branch";"tx90p-1";"pdsisc-3";"coastalflood-1";"carbonprice-1";"zindex-3";"-";"-"
389;17;"Saskatoon_CAN";-106.680362;52.201562;"Saskatoon_CAN_Branch";"tx90p-1";"pdsisc-3";"coastalflood-1";"carbonprice-1";"zindex-3";"-";"-"
390;17;"Regina_CAN";-104.623193;50.525211;"Regina_CAN_Branch";"tx90p-1";"pdsisc-3";"coastalflood-1";"carbonprice-1";"zindex-3";"-";"-"
391;17;"Darval_CAN";-73.781053;45.475543;"Darval_CAN_Branch";"tx90p-1";"pdsisc-3";"coastalflood-1";"carbonprice-1";"zindex-3";"-";"-"
392;17;"Winnipeg_CAN";-97.204438;49.837705;"Winnipeg_CAN_Branch";"tx90p-1";"pdsisc-3";"coastalflood-1";"carbonprice-1";"zindex-3";"-";"-"
393;17;"Brandon_CAN";-99.964513;49.887959;"Brandon_CAN_Branch";"tx90p-1";"pdsisc-3";"coastalflood-1";"carbonprice-1";"zindex-3";"-";"-"
394;17;"Calgary_CAN";-113.975292;50.983256;"Calgary_CAN_Branch";"tx90p-1";"pdsisc-3";"coastalflood-1";"carbonprice-1";"zindex-3";"-";"-"
395;17;"Fort_St_John_CAN";120.789638;56.23466;"Fort_St_John_CAN_Branch";"tx90p-1";"pdsisc-3";"coastalflood-1";"carbonprice-1";"zindex-3";"-";"-"
396;17;"Grande_Prarie_CAN";-118.791471;55.203874;"Grande_Prarie_CAN_Branch";"tx90p-1";"pdsisc-3";"coastalflood-1";"carbonprice-1";"zindex-3";"-";"-"
397;17;"Edmonton_CAN";-113.614032;53.569594;"Edmonton_CAN_Branch";"tx90p-1";"pdsisc-3";"coastalflood-1";"carbonprice-1";"zindex-3";"-";"-"
398;17;"Coaldale_CAN";-112.610569;49.731612;"Coaldale_CAN_Branch";"tx90p-1";"pdsisc-3";"coastalflood-1";"carbonprice-1";"zindex-3";"-";"-"
399;17;"Monterrey_MEX";-100.267074;25.692037;"Monterrey_MEX_Branch";"tx90p-1";"pdsisc-3";"coastalflood-1";"carbonprice-1";"zindex-3";"-";"-"
400;17;"Osasco_BRZ";-46.780664;-23.48446;"Osasco_BRZ_Branch";"tx90p-1";"pdsisc-3";"coastalflood-1";"carbonprice-1";"zindex-3";"-";"-"
401;17;"Glasgow_UK";-3.976035;55.942638;"Glasgow_UK_Branch";"tx90p-1";"pdsisc-3";"coastalflood-1";"carbonprice-1";"zindex-3";"-";"-"
402;17;"Bradford_UK";-1.702875;53.799273;"Bradford_UK_Branch";"tx90p-1";"pdsisc-3";"coastalflood-1";"carbonprice-1";"zindex-3";"-";"-"
403;17;"Pontefract_UK";-1.306651;53.593119;"Pontefract_UK_Branch";"tx90p-1";"pdsisc-3";"coastalflood-1";"carbonprice-1";"zindex-3";"-";"-"
404;17;"Manchester_UK";-2.426623;53.427168;"Manchester_UK_Branch";"tx90p-1";"pdsisc-3";"coastalflood-1";"carbonprice-1";"zindex-3";"-";"-"
405;17;"Wilmslow_UK";-2.208034;53.352401;"Wilmslow_UK_Branch";"tx90p-1";"pdsisc-3";"coastalflood-1";"carbonprice-1";"zindex-3";"-";"-"
406;17;"Burntwood_UK";-1.94363;52.6784;"Burntwood_UK_Branch";"tx90p-1";"pdsisc-3";"coastalflood-1";"carbonprice-1";"zindex-3";"-";"-"
407;17;"Billericay_UK";0.418021;51.629758;"Billericay_UK_Branch";"tx90p-1";"pdsisc-3";"coastalflood-1";"carbonprice-1";"zindex-3";"-";"-"
408;17;"Wellingborough_UK";-0.67872;52.318545;"Wellingborough_UK_Branch";"tx90p-1";"pdsisc-3";"coastalflood-1";"carbonprice-1";"zindex-3";"-";"-"
409;17;"Marinona_ITA";10.620153;44.869578;"Marinona_ITA_Branch";"tx90p-1";"pdsisc-3";"coastalflood-1";"carbonprice-1";"zindex-3";"-";"-"
410;17;"Cusago_ITA";9.049596;45.440305;"Cusago_ITA_Branch";"tx90p-1";"pdsisc-3";"coastalflood-1";"carbonprice-1";"zindex-3";"-";"-"
411;18;"Bridgeton_MO";-90.443381;38.751264;"Brindeton_Spectrum_Call_Center";"tx90p-1";"pdsisc-3";"coastalflood-1";"carbonprice-1";"zindex-3";"-";"-"
412;18;"Walker_MI";-85.728513;43.02467;"Walker_MI_Call_Center";"tx90p-1";"pdsisc-3";"coastalflood-1";"carbonprice-1";"zindex-3";"-";"-"
413;18;"Billings_MT";-108.563467;45.762225;"Billings_MT_Call_Center";"tx90p-1";"pdsisc-3";"coastalflood-1";"carbonprice-1";"zindex-3";"-";"-"
414;18;"Stamford_CT";-73.544153;41.045304;"New_Corporate_HQ";"tx90p-1";"pdsisc-3";"coastalflood-1";"carbonprice-1";"zindex-3";"-";"-"
415;18;"Stamford_CT";-73.538862;41.050461;"Current_Corporate_HQ";"tx90p-1";"pdsisc-3";"coastalflood-1";"carbonprice-1";"zindex-3";"-";"-"
416;18;"Simpsonville_SC";-82.278818;34.795317;"Simpsonville_SC_Call_Center";"tx90p-1";"pdsisc-3";"coastalflood-1";"carbonprice-1";"zindex-3";"-";"-"
417;18;"Vancouver_WA";-122.533006;45.625147;"Vancouver_WA_Call_Center";"tx90p-1";"pdsisc-3";"coastalflood-1";"carbonprice-1";"zindex-3";"-";"-"
418;18;"Fond_Du_Lac_WI";-88.478969;43.745655;"FondDuLac_WI_Call_Center";"tx90p-1";"pdsisc-3";"coastalflood-1";"carbonprice-1";"zindex-3";"-";"-"
419;18;"Rochester_MN";-92.507477;44.082794;"Rochester_MN_Call_Center";"tx90p-1";"pdsisc-3";"coastalflood-1";"carbonprice-1";"zindex-3";"-";"-"
420;18;"Worcester_MA";-71.798407;42.315895;"Worcester_MA_Call_Center";"tx90p-1";"pdsisc-3";"coastalflood-1";"carbonprice-1";"zindex-3";"-";"-"
421;18;"Louisville_KY";-85.565902;38.263904;"Louisville_KY_Call_Center";"tx90p-1";"pdsisc-3";"coastalflood-1";"carbonprice-1";"zindex-3";"-";"-"
422;18;"Greenwood_CO";-104.891887;39.599416;"Greenwood_CO_Data_Center";"tx90p-1";"pdsisc-3";"coastalflood-1";"carbonprice-1";"zindex-3";"-";"-"
423;18;"Charlotte_NC";-80.918488;35.144012;"Charlotte_NC_Corporate_Officeand_Data_Center";"tx90p-1";"pdsisc-3";"coastalflood-1";"carbonprice-1";"zindex-3";"-";"-"
424;18;"NYC_NY";-74.0078;40.729137;"NYC_NY_Data_Center";"tx90p-1";"pdsisc-3";"coastalflood-1";"carbonprice-1";"zindex-3";"-";"-"
425;19;"British_Colombia_Can_1_aggregates";-122.900855;49.194619;"British_Colombia_Can_1_aggregates";"tx90p-1";"pdsisc-3";"coastalflood-1";"carbonprice-1";"zindex-3";"-";"-"
426;19;"British_Colombia_Can_2_aggregates";-122.671174;49.186285;"British_Colombia_Can_2_aggregates";"tx90p-1";"pdsisc-3";"coastalflood-1";"carbonprice-1";"zindex-3";"-";"-"
427;19;"British_Colombia_Can_3_office";-122.665202;49.1764;"British_Colombia_Can_3_office";"tx90p-1";"pdsisc-3";"coastalflood-1";"carbonprice-1";"zindex-3";"-";"-"
428;19;"British_Colombia_Can_4_aggregates";-123.091615;49.121272;"British_Colombia_Can_4_aggregates";"tx90p-1";"pdsisc-3";"coastalflood-1";"carbonprice-1";"zindex-3";"-";"-"
429;19;"British_Colombia_Can_5_aggregates";-122.658393;49.211814;"British_Colombia_Can_5_aggregates";"tx90p-1";"pdsisc-3";"coastalflood-1";"carbonprice-1";"zindex-3";"-";"-"
430;19;"British_Columbia_Can_6_aggregates";-122.186961;49.073158;"British_Columbia_Can_6_aggregates";"tx90p-1";"pdsisc-3";"coastalflood-1";"carbonprice-1";"zindex-3";"-";"-"
431;19;"Lynchburg_VA_asphalt";-79.155316;37.373213;"Lynchburg_VA_asphalt";"tx90p-1";"pdsisc-3";"coastalflood-1";"carbonprice-1";"zindex-3";"-";"-"
432;19;"Martinsville_VA_readymix";-79.903994;36.698417;"Martinsville_VA_readymix";"tx90p-1";"pdsisc-3";"coastalflood-1";"carbonprice-1";"zindex-3";"-";"-"
433;19;"Ewing_VA_Asphalt";-83.433237;36.637295;"Ewing_VA_Asphalt";"tx90p-1";"pdsisc-3";"coastalflood-1";"carbonprice-1";"zindex-3";"-";"-"
434;19;"Ewing_VA_Aggregates";-83.568628;36.616866;"Ewing_VA_Aggregates";"tx90p-1";"pdsisc-3";"coastalflood-1";"carbonprice-1";"zindex-3";"-";"-"
435;19;"Blue_Ridge_VA_all";-79.794039;37.386647;"Blue_Ridge_VA_all";"tx90p-1";"pdsisc-3";"coastalflood-1";"carbonprice-1";"zindex-3";"-";"-"
436;19;"MtCroghan_SC_aggregates";-80.284099;34.720117;"MtCroghan_SC_aggregates";"tx90p-1";"pdsisc-3";"coastalflood-1";"carbonprice-1";"zindex-3";"-";"-"
437;19;"Jefferson_SC_aggregates";-80.46294;34.703645;"Jefferson_SC_aggregates";"tx90p-1";"pdsisc-3";"coastalflood-1";"carbonprice-1";"zindex-3";"-";"-"
438;19;"Sumter_SC_readymix";-80.335538;33.921927;"Sumter_SC_readymix";"tx90p-1";"pdsisc-3";"coastalflood-1";"carbonprice-1";"zindex-3";"-";"-"
439;19;"Sumter_SC_readymix_aggregates";-80.478736;33.953518;"Sumter_SC_readymix_aggregates";"tx90p-1";"pdsisc-3";"coastalflood-1";"carbonprice-1";"zindex-3";"-";"-"
440;19;"West_Columbia_SC_aggregates";-81.088687;33.903304;"West_Columbia_SC_aggregates";"tx90p-1";"pdsisc-3";"coastalflood-1";"carbonprice-1";"zindex-3";"-";"-"
441;19;"Elberton_GA_Aggregates";-82.863251;34.092566;"Elberton_GA_Aggregates";"tx90p-1";"pdsisc-3";"coastalflood-1";"carbonprice-1";"zindex-3";"-";"-"
442;19;"Elbert_County_GA_Aggregates";-82.97157;34.051667;"Elbert_County_GA_Aggregates";"tx90p-1";"pdsisc-3";"coastalflood-1";"carbonprice-1";"zindex-3";"-";"-"
443;19;"Cumming_GA_Aggregates";-84.048122;34.285991;"Cumming_GA_Aggregates";"tx90p-1";"pdsisc-3";"coastalflood-1";"carbonprice-1";"zindex-3";"-";"-"
444;19;"Memphis_TN_Cement";-90.047349;35.167294;"Memphis_TN_Cement";"tx90p-1";"pdsisc-3";"coastalflood-1";"carbonprice-1";"zindex-3";"-";"-"
445;19;"Middlesboro_Ky_Asphalt";-83.710088;36.618738;"Middlesboro_Ky_Asphalt";"tx90p-1";"pdsisc-3";"coastalflood-1";"carbonprice-1";"zindex-3";"-";"-"
446;19;"Jellico_TN_Aggregates";-84.078692;36.579206;"Jellico_TN_Aggregates";"tx90p-1";"pdsisc-3";"coastalflood-1";"carbonprice-1";"zindex-3";"-";"-"
447;19;"Burnside_KY_Asphalt";-84.577826;36.95599;"Burnside_KY_Asphalt";"tx90p-1";"pdsisc-3";"coastalflood-1";"carbonprice-1";"zindex-3";"-";"-"
448;19;"Somerset_KY_Aggregates";-84.580054;37.105415;"Somerset_KY_Aggregates";"tx90p-1";"pdsisc-3";"coastalflood-1";"carbonprice-1";"zindex-3";"-";"-"
449;19;"Bethelridge_KY_Aggregates";-84.770226;37.247427;"Bethelridge_KY_Aggregates";"tx90p-1";"pdsisc-3";"coastalflood-1";"carbonprice-1";"zindex-3";"-";"-"
450;19;"Tompkinsville_KY_Aggregates";-85.709393;36.705573;"Tompkinsville_KY_Aggregates";"tx90p-1";"pdsisc-3";"coastalflood-1";"carbonprice-1";"zindex-3";"-";"-"
451;19;"Glasglow_KY_Aggregates";-85.775077;37.021013;"Glasglow_KY_Aggregates";"tx90p-1";"pdsisc-3";"coastalflood-1";"carbonprice-1";"zindex-3";"-";"-"
452;19;"Cave_City_KY_Aggregates";-85.938246;37.067765;"Cave_City_KY_Aggregates";"tx90p-1";"pdsisc-3";"coastalflood-1";"carbonprice-1";"zindex-3";"-";"-"
453;19;"Horsecave_KY_Aggregates";-85.877517;37.180564;"Horsecave_KY_Aggregates";"tx90p-1";"pdsisc-3";"coastalflood-1";"carbonprice-1";"zindex-3";"-";"-"
454;19;"Magnolia_KY_Aggregates";-85.724058;37.411492;"Magnolia_KY_Aggregates";"tx90p-1";"pdsisc-3";"coastalflood-1";"carbonprice-1";"zindex-3";"-";"-"
455;19;"Crestwood_KY_Aggregates";-85.505079;38.354982;"Crestwood_KY_Aggregates";"tx90p-1";"pdsisc-3";"coastalflood-1";"carbonprice-1";"zindex-3";"-";"-"
456;19;"Carrollton_KY_Asphalt";-85.122072;38.645105;"Carrollton_KY_Asphalt";"tx90p-1";"pdsisc-3";"coastalflood-1";"carbonprice-1";"zindex-3";"-";"-"
457;19;"Carrollton_KY_Asphalt_2";-85.144119;38.676099;"Carrollton_KY_Asphalt_2";"tx90p-1";"pdsisc-3";"coastalflood-1";"carbonprice-1";"zindex-3";"-";"-"
458;19;"Georgetown_KY_Aggregates";-84.542757;38.209281;"Georgetown_KY_Aggregates";"tx90p-1";"pdsisc-3";"coastalflood-1";"carbonprice-1";"zindex-3";"-";"-"
459;19;"Morehead_KY_Asphalt";-83.420011;38.14434;"Morehead_KY_Asphalt";"tx90p-1";"pdsisc-3";"coastalflood-1";"carbonprice-1";"zindex-3";"-";"-"
460;19;"West_Liberty_KY_Asphalt";-83.368278;38.022859;"West_Liberty_KY_Asphalt";"tx90p-1";"pdsisc-3";"coastalflood-1";"carbonprice-1";"zindex-3";"-";"-"
461;19;"Stanton_KY_Aggregates";-83.767906;37.825515;"Stanton_KY_Aggregates";"tx90p-1";"pdsisc-3";"coastalflood-1";"carbonprice-1";"zindex-3";"-";"-"
462;19;"Stanton_KY_Aggregates";-83.77464;37.811349;"Stanton_KY_Aggregates";"tx90p-1";"pdsisc-3";"coastalflood-1";"carbonprice-1";"zindex-3";"-";"-"
463;19;"Ravenna_KY_Aggregates";-83.896652;37.704645;"Ravenna_KY_Aggregates";"tx90p-1";"pdsisc-3";"coastalflood-1";"carbonprice-1";"zindex-3";"-";"-"
464;19;"Ravenna_KY_Asphalt";-83.90977;37.70451;"Ravenna_KY_Asphalt";"tx90p-1";"pdsisc-3";"coastalflood-1";"carbonprice-1";"zindex-3";"-";"-"
465;19;"Somerset_KY_Asphalt";-84.568927;37.11046;"Somerset_KY_Asphalt";"tx90p-1";"pdsisc-3";"coastalflood-1";"carbonprice-1";"zindex-3";"-";"-"
466;19;"New_Orleans_LA_Cement";-90.028008;29.978595;"New_Orleans_LA_Cement";"tx90p-1";"pdsisc-3";"coastalflood-1";"carbonprice-1";"zindex-3";"-";"-"
467;19;"Convent_LA_Cement";-90.907844;30.104488;"Convent_LA_Cement";"tx90p-1";"pdsisc-3";"coastalflood-1";"carbonprice-1";"zindex-3";"-";"-"
468;19;"LaCrosse_WI_Cement";-91.259461;43.835537;"LaCrosse_WI_Cement";"tx90p-1";"pdsisc-3";"coastalflood-1";"carbonprice-1";"zindex-3";"-";"-"
469;19;"St_Paul_MN_Cement";-93.020062;44.899475;"St_Paul_MN_Cement";"tx90p-1";"pdsisc-3";"coastalflood-1";"carbonprice-1";"zindex-3";"-";"-"
470;19;"Minneapolis_MN_Cement";-93.275785;45.00524;"Minneapolis_MN_Cement";"tx90p-1";"pdsisc-3";"coastalflood-1";"carbonprice-1";"zindex-3";"-";"-"
471;19;"Buffalo_IA_Cement";-90.679702;41.4641;"Buffalo_IA_Cement";"tx90p-1";"pdsisc-3";"coastalflood-1";"carbonprice-1";"zindex-3";"-";"-"
472;19;"West_Des_Moines_IA_Cement";-93.719479;41.566071;"West_Des_Moines_IA_Cement";"tx90p-1";"pdsisc-3";"coastalflood-1";"carbonprice-1";"zindex-3";"-";"-"
473;19;"Perry_KS_Office";-95.388716;39.079536;"Perry_KS_Office";"tx90p-1";"pdsisc-3";"coastalflood-1";"carbonprice-1";"zindex-3";"-";"-"
474;19;"Topeka_KS_Aggregates";-95.779276;39.078751;"Topeka_KS_Aggregates";"tx90p-1";"pdsisc-3";"coastalflood-1";"carbonprice-1";"zindex-3";"-";"-"
475;19;"Chapman_KS_Aggregates";-97.053785;38.89869;"Chapman_KS_Aggregates";"tx90p-1";"pdsisc-3";"coastalflood-1";"carbonprice-1";"zindex-3";"-";"-"
476;19;"Wichita_KS_All";-97.314459;37.63412;"Wichita_KS_All";"tx90p-1";"pdsisc-3";"coastalflood-1";"carbonprice-1";"zindex-3";"-";"-"
477;19;"North_Marked_Tree_AR_ReadyMix";-90.430059;35.518499;"North_Marked_Tree_AR_ReadyMix";"tx90p-1";"pdsisc-3";"coastalflood-1";"carbonprice-1";"zindex-3";"-";"-"
478;19;"Hugo_OK_ReadyMix";-95.469876;33.998036;"Hugo_OK_ReadyMix";"tx90p-1";"pdsisc-3";"coastalflood-1";"carbonprice-1";"zindex-3";"-";"-"
479;19;"Texarkana_AR_Asphalt";-94.01029;33.417928;"Texarkana_AR_Asphalt";"tx90p-1";"pdsisc-3";"coastalflood-1";"carbonprice-1";"zindex-3";"-";"-"
480;19;"Richmond_TX_Aggregates_ReadMix";-95.696578;29.525881;"Richmond_TX_Aggregates_ReadMix";"tx90p-1";"pdsisc-3";"coastalflood-1";"carbonprice-1";"zindex-3";"-";"-"
481;19;"Florence_TX_Aggregates_Asphalt";-97.836814;30.671582;"Florence_TX_Aggregates_Asphalt";"tx90p-1";"pdsisc-3";"coastalflood-1";"carbonprice-1";"zindex-3";"-";"-"
482;19;"Silverthorne_CO_Aggregates_Asphalt";-106.102207;39.685132;"Silverthorne_CO_Aggregates_Asphalt";"tx90p-1";"pdsisc-3";"coastalflood-1";"carbonprice-1";"zindex-3";"-";"-"
483;19;"Tooele_UT_Aggregates";-112.286825;40.634808;"Tooele_UT_Aggregates";"tx90p-1";"pdsisc-3";"coastalflood-1";"carbonprice-1";"zindex-3";"-";"-"
484;19;"Fairplay_CO_Aggregates";-105.393344;39.465412;"Fairplay_CO_Aggregates";"tx90p-1";"pdsisc-3";"coastalflood-1";"carbonprice-1";"zindex-3";"-";"-"
485;20;"San_Francisco_CA";-122.392843;37.790631;"Corporate_HQ";"tx90p-1";"pdsisc-3";"coastalflood-1";"carbonprice-1";"zindex-3";"-";"-"
486;20;"Phoenix_AZ";-112.030222;33.528506;"Phoenix_AZ_Office";"tx90p-1";"pdsisc-3";"coastalflood-1";"carbonprice-1";"zindex-3";"-";"-"
487;20;"Denver_CO";-104.874533;39.534781;"Denver_CO_Office";"tx90p-1";"pdsisc-3";"coastalflood-1";"carbonprice-1";"zindex-3";"-";"-"
488;20;"Austin_TX";-97.712771;30.399235;"Austin_TX_Office";"tx90p-1";"pdsisc-3";"coastalflood-1";"carbonprice-1";"zindex-3";"-";"-"
489;20;"Dallas_TX";-97.230186;32.978832;"Dallas_TX_Office";"tx90p-1";"pdsisc-3";"coastalflood-1";"carbonprice-1";"zindex-3";"-";"-"
490;20;"Orlando_FL";-81.399944;28.63878;"Orlando_FL_Operations_Center";"tx90p-1";"pdsisc-3";"coastalflood-1";"carbonprice-1";"zindex-3";"-";"-"
491;20;"Richfield_OH";-81.634082;41.222894;"Richfield_OH_Office";"tx90p-1";"pdsisc-3";"coastalflood-1";"carbonprice-1";"zindex-3";"-";"-"
492;20;"El_Paso_TX";-106.577257;31.90434;"El_Paso_TX_Operations_Center";"tx90p-1";"pdsisc-3";"coastalflood-1";"carbonprice-1";"zindex-3";"-";"-"
493;21;"Woodcliff_Lake_NJ";-74.074359;41.043941;"Eagle_Pharmaceuticals";"tx90p-1";"pdsisc-3";"coastalflood-1";"carbonprice-1";"zindex-3";"-";"-"
494;21;"Mission_Viejo_CA";-117.676921;33.620992;"Eagle_Pharmaceuticals_Research";"tx90p-1";"pdsisc-3";"coastalflood-1";"carbonprice-1";"zindex-3";"-";"-"
495;21;"Cambridge_MA";-71.090113;42.367534;"Eagle_Biologics_Leased";"tx90p-1";"pdsisc-3";"coastalflood-1";"carbonprice-1";"zindex-3";"-";"-"
496;21;"Waltham_MA";-71.274032;42.407769;"Eagle_Biologics";"tx90p-1";"pdsisc-3";"coastalflood-1";"carbonprice-1";"zindex-3";"-";"-"
497;22;"Carbondale_PA_Treatment";-75.470672;41.575253;"Carbondale_PA_Treatment";"tx90p-1";"pdsisc-3";"coastalflood-1";"carbonprice-1";"zindex-3";"-";"-"
498;22;"Urbana_IL_Treatment";-88.228195;40.132365;"Urbana_IL_Treatment";"tx90p-1";"pdsisc-3";"coastalflood-1";"carbonprice-1";"zindex-3";"-";"-"
499;22;"Shrewsbery_NJ_Treatment";-74.113777;40.31794;"Shrewsbery_NJ_Treatment";"tx90p-1";"pdsisc-3";"coastalflood-1";"carbonprice-1";"zindex-3";"-";"-"
500;22;"Elwood_PA_Facility";-80.255816;40.858517;"Elwood_PA_Facility";"tx90p-1";"pdsisc-3";"coastalflood-1";"carbonprice-1";"zindex-3";"-";"-"
501;22;"Joplin_Mo_Warehouse";-94.4688;37.065295;"Joplin_Mo_Warehouse";"tx90p-1";"pdsisc-3";"coastalflood-1";"carbonprice-1";"zindex-3";"-";"-"
502;22;"Chesterfield_MO_Treatment";-90.523774;38.68608;"Chesterfield_MO_Treatment";"tx90p-1";"pdsisc-3";"coastalflood-1";"carbonprice-1";"zindex-3";"-";"-"
503;22;"New_Castle_PA_Facility";-80.303377;40.96256;"New_Castle_PA_Facility";"tx90p-1";"pdsisc-3";"coastalflood-1";"carbonprice-1";"zindex-3";"-";"-"
504;22;"Yardley_PA_Office";-74.845822;40.224129;"Yardley_PA_Office";"tx90p-1";"pdsisc-3";"coastalflood-1";"carbonprice-1";"zindex-3";"-";"-"
505;22;"Peroria_PA_Facility";-89.551;40.72609;"Peroria_PA_Facility";"tx90p-1";"pdsisc-3";"coastalflood-1";"carbonprice-1";"zindex-3";"-";"-"
506;22;"StLouis_IL_Treatement";-90.168519;38.642719;"StLouis_IL_Treatement";"tx90p-1";"pdsisc-3";"coastalflood-1";"carbonprice-1";"zindex-3";"-";"-"
507;22;"Belleville_IL_Lab";-89.984581;38.500692;"Belleville_IL_Lab";"tx90p-1";"pdsisc-3";"coastalflood-1";"carbonprice-1";"zindex-3";"-";"-"
508;22;"Charleston_WV_Facility";-81.621145;38.360273;"Charleston_WV_Facility";"tx90p-1";"pdsisc-3";"coastalflood-1";"carbonprice-1";"zindex-3";"-";"-"
509;22;"Huntington_WV_Facility";-82.41726;38.431348;"Huntington_WV_Facility";"tx90p-1";"pdsisc-3";"coastalflood-1";"carbonprice-1";"zindex-3";"-";"-"
510;22;"Spring_City_PA";-75.57211;40.193065;"Spring_City_PA";"tx90p-1";"pdsisc-3";"coastalflood-1";"carbonprice-1";"zindex-3";"-";"-"
511;22;"McMurray_PA_Office";-80.136587;40.2587;"McMurray_PA_Office";"tx90p-1";"pdsisc-3";"coastalflood-1";"carbonprice-1";"zindex-3";"-";"-"
512;22;"Hewlett-NY_Facility";-73.709932;40.64857;"Hewlett-NY_Facility";"tx90p-1";"pdsisc-3";"coastalflood-1";"carbonprice-1";"zindex-3";"-";"-"
513;22;"Scranton_PA_Office";-75.677003;41.373988;"Scranton_PA_Office";"tx90p-1";"pdsisc-3";"coastalflood-1";"carbonprice-1";"zindex-3";"-";"-"
514;22;"Scranton_Sewer";-75.692478;41.388388;"Scranton_Sewer";"tx90p-1";"pdsisc-3";"coastalflood-1";"carbonprice-1";"zindex-3";"-";"-"
515;22;"Honolulu_HA_Treatment";-157.672232;21.288193;"Honolulu_HA_Treatment";"tx90p-1";"pdsisc-3";"coastalflood-1";"carbonprice-1";"zindex-3";"-";"-"
516;22;"Arcadia_CA_Pumping";-118.042518;34.104993;"Arcadia_CA_Pumping";"tx90p-1";"pdsisc-3";"coastalflood-1";"carbonprice-1";"zindex-3";"-";"-"
517;22;"Carmel_CA_Well1";-121.88205;36.538826;"Carmel_CA_Well1";"tx90p-1";"pdsisc-3";"coastalflood-1";"carbonprice-1";"zindex-3";"-";"-"
518;22;"Carmel_CA_Pumping";-121.833961;36.5274;"Carmel_CA_Pumping";"tx90p-1";"pdsisc-3";"coastalflood-1";"carbonprice-1";"zindex-3";"-";"-"
519;22;"Carmel_CA_IronRemoval";-121.815585;36.523816;"Carmel_CA_IronRemoval";"tx90p-1";"pdsisc-3";"coastalflood-1";"carbonprice-1";"zindex-3";"-";"-"
520;22;"Carmel_CA_Well2";-121.795604;36.543137;"Carmel_CA_Well2";"tx90p-1";"pdsisc-3";"coastalflood-1";"carbonprice-1";"zindex-3";"-";"-"
521;22;"Chualar_CA_facility";-121.5141;36.569728;"Chualar_CA_facility";"tx90p-1";"pdsisc-3";"coastalflood-1";"carbonprice-1";"zindex-3";"-";"-"
522;22;"El_Monte_CA_Pumping";-118.052391;34.089944;"El_Monte_CA_Pumping";"tx90p-1";"pdsisc-3";"coastalflood-1";"carbonprice-1";"zindex-3";"-";"-"
523;22;"Imperial_Beach_CA_Office";-117.111494;32.583541;"Imperial_Beach_CA_Office";"tx90p-1";"pdsisc-3";"coastalflood-1";"carbonprice-1";"zindex-3";"-";"-"
524;22;"Citrus_Heights_Well";-121.317171;38.709422;"Citrus_Heights_Well";"tx90p-1";"pdsisc-3";"coastalflood-1";"carbonprice-1";"zindex-3";"-";"-"
525;22;"Los_Angeles_CA_Facility";-118.354835;33.998105;"Los_Angeles_CA_Facility";"tx90p-1";"pdsisc-3";"coastalflood-1";"carbonprice-1";"zindex-3";"-";"-"
526;22;"Los_Angeles_CA_Pumping1";-118.321972;34.000215;"Los_Angeles_CA_Pumping1";"tx90p-1";"pdsisc-3";"coastalflood-1";"carbonprice-1";"zindex-3";"-";"-"
527;22;"Los_Angeles_CA_Pumping2";-118.318489;33.996547;"Los_Angeles_CA_Pumping2";"tx90p-1";"pdsisc-3";"coastalflood-1";"carbonprice-1";"zindex-3";"-";"-"
528;22;"Monterey_CA_Facility";-118.334957;34.006306;"Monterey_CA_Facility";"tx90p-1";"pdsisc-3";"coastalflood-1";"carbonprice-1";"zindex-3";"-";"-"
529;22;"Monterey_CA_Storage";-121.917364;36.605174;"Monterey_CA_Storage";"tx90p-1";"pdsisc-3";"coastalflood-1";"carbonprice-1";"zindex-3";"-";"-"
530;22;"Newbury_Park_CA_Office";-118.928769;34.186833;"Newbury_Park_CA_Office";"tx90p-1";"pdsisc-3";"coastalflood-1";"carbonprice-1";"zindex-3";"-";"-"
531;22;"Pasadena_CA_Pumping";-118.098875;34.143187;"Pasadena_CA_Pumping";"tx90p-1";"pdsisc-3";"coastalflood-1";"carbonprice-1";"zindex-3";"-";"-"
532;22;"Sacramento_CA_Treatment1";-121.358375;38.536692;"Sacramento_CA_Treatment1";"tx90p-1";"pdsisc-3";"coastalflood-1";"carbonprice-1";"zindex-3";"-";"-"
533;22;"Rosemead_CA_Facility";-118.080358;34.092439;"Rosemead_CA_Facility";"tx90p-1";"pdsisc-3";"coastalflood-1";"carbonprice-1";"zindex-3";"-";"-"
534;22;"Sacramento_CA_Treatment2";-121.380927;38.454739;"Sacramento_CA_Treatment2";"tx90p-1";"pdsisc-3";"coastalflood-1";"carbonprice-1";"zindex-3";"-";"-"
535;22;"Salinas_CA_Facility";-121.72418;36.575085;"Salinas_CA_Facility";"tx90p-1";"pdsisc-3";"coastalflood-1";"carbonprice-1";"zindex-3";"-";"-"
536;22;"Salinas_CA_Well";-121.754657;36.560483;"Salinas_CA_Well";"tx90p-1";"pdsisc-3";"coastalflood-1";"carbonprice-1";"zindex-3";"-";"-"
537;22;"Salinas_CA_Resevior";-121.656013;36.612678;"Salinas_CA_Resevior";"tx90p-1";"pdsisc-3";"coastalflood-1";"carbonprice-1";"zindex-3";"-";"-"
538;22;"San_Marnio_CA_Pumping";-118.099377;34.121194;"San_Marnio_CA_Pumping";"tx90p-1";"pdsisc-3";"coastalflood-1";"carbonprice-1";"zindex-3";"-";"-"
539;22;"Seaside_CA_Facility";-121.85472;36.611414;"Seaside_CA_Facility";"tx90p-1";"pdsisc-3";"coastalflood-1";"carbonprice-1";"zindex-3";"-";"-"
540;22;"Davenport_IA_Facility1";-90.547427;41.52896;"Davenport_IA_Facility1";"tx90p-1";"pdsisc-3";"coastalflood-1";"carbonprice-1";"zindex-3";"-";"-"
541;22;"Davenport_IA_Facility2";-90.579457;41.534446;"Davenport_IA_Facility2";"tx90p-1";"pdsisc-3";"coastalflood-1";"carbonprice-1";"zindex-3";"-";"-"
542;22;"Alton_IL_Treatment";-90.189806;38.890658;"Alton_IL_Treatment";"tx90p-1";"pdsisc-3";"coastalflood-1";"carbonprice-1";"zindex-3";"-";"-"
543;22;"Champaign_IL_Treatment";-88.278235;40.134147;"Champaign_IL_Treatment";"tx90p-1";"pdsisc-3";"coastalflood-1";"carbonprice-1";"zindex-3";"-";"-"
544;22;"StLouis_IL_Storage";-90.069212;38.592221;"StLouis_IL_Storage";"tx90p-1";"pdsisc-3";"coastalflood-1";"carbonprice-1";"zindex-3";"-";"-"
545;22;"Granite_City_IL_Treatment";-90.152135;38.71153;"Granite_City_IL_Treatment";"tx90p-1";"pdsisc-3";"coastalflood-1";"carbonprice-1";"zindex-3";"-";"-"
546;22;"Pontiac_IL_Treatment";-88.626726;40.877652;"Pontiac_IL_Treatment";"tx90p-1";"pdsisc-3";"coastalflood-1";"carbonprice-1";"zindex-3";"-";"-"
547;22;"Streator_IL_Treatment";-88.816178;41.090651;"Streator_IL_Treatment";"tx90p-1";"pdsisc-3";"coastalflood-1";"carbonprice-1";"zindex-3";"-";"-"
548;22;"Urbana_IL_Facility";-88.220918;40.117672;"Urbana_IL_Facility";"tx90p-1";"pdsisc-3";"coastalflood-1";"carbonprice-1";"zindex-3";"-";"-"
549;22;"Crawfordsville_IN_Facility";-86.845691;40.051725;"Crawfordsville_IN_Facility";"tx90p-1";"pdsisc-3";"coastalflood-1";"carbonprice-1";"zindex-3";"-";"-"
550;22;"Franklin_IN_Facility";-85.96945;39.501957;"Franklin_IN_Facility";"tx90p-1";"pdsisc-3";"coastalflood-1";"carbonprice-1";"zindex-3";"-";"-"
551;22;"Jeffersonville_IN_Facility";-85.707495;38.306055;"Jeffersonville_IN_Facility";"tx90p-1";"pdsisc-3";"coastalflood-1";"carbonprice-1";"zindex-3";"-";"-"
552;22;"Kokomo_IN_Facility";-86.152993;40.517276;"Kokomo_IN_Facility";"tx90p-1";"pdsisc-3";"coastalflood-1";"carbonprice-1";"zindex-3";"-";"-"
553;22;"Kokomo_IN_Treatment";-86.110719;40.486251;"Kokomo_IN_Treatment";"tx90p-1";"pdsisc-3";"coastalflood-1";"carbonprice-1";"zindex-3";"-";"-"
554;22;"Muncie_IN_Treatment";-85.3502;40.182273;"Muncie_IN_Treatment";"tx90p-1";"pdsisc-3";"coastalflood-1";"carbonprice-1";"zindex-3";"-";"-"
555;22;"Noblesville_IN_Treatment1";-86.014462;40.048258;"Noblesville_IN_Treatment1";"tx90p-1";"pdsisc-3";"coastalflood-1";"carbonprice-1";"zindex-3";"-";"-"
556;22;"Noblesville_IN_Treatment2";-86.005995;40.080593;"Noblesville_IN_Treatment2";"tx90p-1";"pdsisc-3";"coastalflood-1";"carbonprice-1";"zindex-3";"-";"-"
557;22;"Richmond_IN_Treatment";-84.877741;39.854753;"Richmond_IN_Treatment";"tx90p-1";"pdsisc-3";"coastalflood-1";"carbonprice-1";"zindex-3";"-";"-"
558;22;"Seymour_IN_Treatment";-85.897799;38.985615;"Seymour_IN_Treatment";"tx90p-1";"pdsisc-3";"coastalflood-1";"carbonprice-1";"zindex-3";"-";"-"
559;22;"Terre_Haute_IN_Facility";-87.417652;39.476694;"Terre_Haute_IN_Facility";"tx90p-1";"pdsisc-3";"coastalflood-1";"carbonprice-1";"zindex-3";"-";"-"
560;22;"Lexington_KY_Facility";-84.452265;37.978412;"Lexington_KY_Facility";"tx90p-1";"pdsisc-3";"coastalflood-1";"carbonprice-1";"zindex-3";"-";"-"
561;22;"Lexington_KY_Treatment";-84.464691;38.013202;"Lexington_KY_Treatment";"tx90p-1";"pdsisc-3";"coastalflood-1";"carbonprice-1";"zindex-3";"-";"-"
562;22;"Millersburg_KY_Facility";-84.152708;38.299434;"Millersburg_KY_Facility";"tx90p-1";"pdsisc-3";"coastalflood-1";"carbonprice-1";"zindex-3";"-";"-"
563;22;"Owenton_KY_Facility";-84.831671;38.542401;"Owenton_KY_Facility";"tx90p-1";"pdsisc-3";"coastalflood-1";"carbonprice-1";"zindex-3";"-";"-"
564;22;"Fort_Meade_MD_Facility";-76.756009;39.095733;"Fort_Meade_MD_Facility";"tx90p-1";"pdsisc-3";"coastalflood-1";"carbonprice-1";"zindex-3";"-";"-"
565;22;"Laurel_MD_Facility";-76.766949;39.094046;"Laurel_MD_Facility";"tx90p-1";"pdsisc-3";"coastalflood-1";"carbonprice-1";"zindex-3";"-";"-"
566;22;"Florissant_MO_Facility";-90.369321;38.819415;"Florissant_MO_Facility";"tx90p-1";"pdsisc-3";"coastalflood-1";"carbonprice-1";"zindex-3";"-";"-"
567;22;"Jefferson_City_MO_Facility";-92.144575;38.487829;"Jefferson_City_MO_Facility";"tx90p-1";"pdsisc-3";"coastalflood-1";"carbonprice-1";"zindex-3";"-";"-"
568;22;"Joplin_MO_Facility";-94.526656;37.068969;"Joplin_MO_Facility";"tx90p-1";"pdsisc-3";"coastalflood-1";"carbonprice-1";"zindex-3";"-";"-"
569;22;"Wildwood_MO_Tank";-90.627649;38.56492;"Wildwood_MO_Tank";"tx90p-1";"pdsisc-3";"coastalflood-1";"carbonprice-1";"zindex-3";"-";"-"
570;22;"Absecon_NJ_Pumping";-74.506747;39.431521;"Absecon_NJ_Pumping";"tx90p-1";"pdsisc-3";"coastalflood-1";"carbonprice-1";"zindex-3";"-";"-"
571;22;"Bay_Head_NJ_Facility";-74.045268;40.068623;"Bay_Head_NJ_Facility";"tx90p-1";"pdsisc-3";"coastalflood-1";"carbonprice-1";"zindex-3";"-";"-"
572;22;"Bridgewater_NJ_Facility";-74.56812;40.557994;"Bridgewater_NJ_Facility";"tx90p-1";"pdsisc-3";"coastalflood-1";"carbonprice-1";"zindex-3";"-";"-"
573;22;"Cherry_Hill_NJ_Office";-75.010132;39.87126;"Cherry_Hill_NJ_Office";"tx90p-1";"pdsisc-3";"coastalflood-1";"carbonprice-1";"zindex-3";"-";"-"
574;22;"Cinnaminson_NJ_Facility";-75.010872;40.000149;"Cinnaminson_NJ_Facility";"tx90p-1";"pdsisc-3";"coastalflood-1";"carbonprice-1";"zindex-3";"-";"-"
575;22;"Edison_NJ_Facility";-74.384567;40.580327;"Edison_NJ_Facility";"tx90p-1";"pdsisc-3";"coastalflood-1";"carbonprice-1";"zindex-3";"-";"-"
576;22;"Galloway_NJ_Facility";-74.473851;39.495854;"Galloway_NJ_Facility";"tx90p-1";"pdsisc-3";"coastalflood-1";"carbonprice-1";"zindex-3";"-";"-"
577;22;"Voorhees_NJ_CorpHQ";-74.973572;39.844806;"Voorhees_NJ_CorpHQ";"tx90p-1";"pdsisc-3";"coastalflood-1";"carbonprice-1";"zindex-3";"-";"-"
578;22;"Washington_NJ_Well";-74.958177;40.754461;"Washington_NJ_Well";"tx90p-1";"pdsisc-3";"coastalflood-1";"carbonprice-1";"zindex-3";"-";"-"
579;23;"Pasadena_Ca";-118.07816;34.150604;"TetraTech_Corporate_Hqs";"tx90p-1";"pdsisc-3";"coastalflood-1";"carbonprice-1";"zindex-3";"-";"-"
580;23;"Adelaide_Austrailia";138.579038;-34.941184;"TetraTech_Office";"tx90p-1";"pdsisc-3";"coastalflood-1";"carbonprice-1";"zindex-3";"-";"-"
581;23;"Arlington_Va";-77.049347;38.862421;"TetraTech_Office";"tx90p-1";"pdsisc-3";"coastalflood-1";"carbonprice-1";"zindex-3";"-";"-"
582;23;"Calgary_Canada";-114.011847;50.978992;"TetraTech_Office";"tx90p-1";"pdsisc-3";"coastalflood-1";"carbonprice-1";"zindex-3";"-";"-"
583;23;"London_UK";-0.124669;51.523522;"TetraTech_Office";"tx90p-1";"pdsisc-3";"coastalflood-1";"carbonprice-1";"zindex-3";"-";"-"
584;23;"New_York_NY";-73.992461;40.749899;"TetraTech_Office";"tx90p-1";"pdsisc-3";"coastalflood-1";"carbonprice-1";"zindex-3";"-";"-"
585;23;"Perth_Australia";115.948188;-31.994052;"TetraTech_Office";"tx90p-1";"pdsisc-3";"coastalflood-1";"carbonprice-1";"zindex-3";"-";"-"
586;23;"Seattle_Wa";-122.337484;47.612611;"TetraTech_Office";"tx90p-1";"pdsisc-3";"coastalflood-1";"carbonprice-1";"zindex-3";"-";"-"
587;23;"Sydney_Australia";151.179142;-33.797494;"TetraTech_Office";"tx90p-1";"pdsisc-3";"coastalflood-1";"carbonprice-1";"zindex-3";"-";"-"
588;23;"Vancouver_Canada";-123.117638;49.285092;"TetraTech_Office";"tx90p-1";"pdsisc-3";"coastalflood-1";"carbonprice-1";"zindex-3";"-";"-"
589;24;"Dallas_TX";-96.719838;33.000033;"Dallas_TX_Manufacturing";"tx90p-1";"pdsisc-3";"coastalflood-1";"carbonprice-1";"zindex-3";"-";"-"
590;24;"Dallas_TX_Hqs";-96.754108;32.91133;"Dallas_TX_Corporate_HQ";"tx90p-1";"pdsisc-3";"coastalflood-1";"carbonprice-1";"zindex-3";"-";"-"
591;24;"Houston_TX";-95.64654;29.577199;"Houston_TX_Manufacturing";"tx90p-1";"pdsisc-3";"coastalflood-1";"carbonprice-1";"zindex-3";"-";"-"
592;24;"Sherman_TX";-96.607718;33.564773;"Sherman_TX_Manufacturing";"tx90p-1";"pdsisc-3";"coastalflood-1";"carbonprice-1";"zindex-3";"-";"-"
593;24;"Tuscon_AZ";-110.877891;32.217166;"Tuscon_AZ_Manufacturing";"tx90p-1";"pdsisc-3";"coastalflood-1";"carbonprice-1";"zindex-3";"-";"-"
594;24;"Santa_Clara_CA";-122.001924;37.374634;"Canta_Clara_CA_Campus";"tx90p-1";"pdsisc-3";"coastalflood-1";"carbonprice-1";"zindex-3";"-";"-"
595;24;"Portland_ME";-70.323116;43.642445;"Portland_ME_Manufacturing";"tx90p-1";"pdsisc-3";"coastalflood-1";"carbonprice-1";"zindex-3";"-";"-"
596;24;"Chengdu_China";103.91396;30.777828;"Chengdu_CHN_Manufacturing";"tx90p-1";"pdsisc-3";"coastalflood-1";"carbonprice-1";"zindex-3";"-";"-"
597;24;"Freising_Germany";11.772934;48.397623;"Freising_GER_Manufacturing";"tx90p-1";"pdsisc-3";"coastalflood-1";"carbonprice-1";"zindex-3";"-";"-"
598;24;"Bangalore_India";77.659617;12.979098;"Bangalore_IN_Manufacturing";"tx90p-1";"pdsisc-3";"coastalflood-1";"carbonprice-1";"zindex-3";"-";"-"
599;24;"Aizu_Japan";139.880746;37.543182;"Aizu_JPN_Manufacturing";"tx90p-1";"pdsisc-3";"coastalflood-1";"carbonprice-1";"zindex-3";"-";"-"
600;24;"Miho_Japan";140.300312;36.02047;"Miho_JPN_Manufacturing";"tx90p-1";"pdsisc-3";"coastalflood-1";"carbonprice-1";"zindex-3";"-";"-"
601;24;"Kuala_Lumpur_Malaysia";101.750979;3.1706;"Kuala_Lumpur_MYS_Manufacturing";"tx90p-1";"pdsisc-3";"coastalflood-1";"carbonprice-1";"zindex-3";"-";"-"
602;24;"Melaka_Malaysia";102.26246;2.231796;"Melaka_MYS_Manufacturing";"tx90p-1";"pdsisc-3";"coastalflood-1";"carbonprice-1";"zindex-3";"-";"-"
603;24;"Aguascalientes_Mexico";-102.282139;21.841752;"Aguascalientes_MEX_Manufacturing";"tx90p-1";"pdsisc-3";"coastalflood-1";"carbonprice-1";"zindex-3";"-";"-"
604;24;"Baguio_Philippines";120.621278;16.380886;"Baguio_PHL_Manufacturing";"tx90p-1";"pdsisc-3";"coastalflood-1";"carbonprice-1";"zindex-3";"-";"-"
605;24;"Pampanga_Philippines";120.53744;15.199857;"Pampanga_PHL_Manufacturing";"tx90p-1";"pdsisc-3";"coastalflood-1";"carbonprice-1";"zindex-3";"-";"-"
606;24;"Greenock_Sccotland";-4.834365;55.943684;"Greenock_SCO_Manufacturing";"tx90p-1";"pdsisc-3";"coastalflood-1";"carbonprice-1";"zindex-3";"-";"-"
607;24;"Taipei_Taiwan";121.50846;24.988009;"Taipei_ROC_Manufacturing";"tx90p-1";"pdsisc-3";"coastalflood-1";"carbonprice-1";"zindex-3";"-";"-"
608;25;"Fountain_Inn_SC";-82.230774;34.692778;"Grainger_Distribution_Center";"tx90p-1";"pdsisc-3";"coastalflood-1";"carbonprice-1";"zindex-3";"-";"-"
609;25;"Macedonia_OH";-81.468721;41.288233;"Grainger_Distribution_Center";"tx90p-1";"pdsisc-3";"coastalflood-1";"carbonprice-1";"zindex-3";"-";"-"
610;25;"Bordentown_NJ";-74.72319;40.125187;"Grainger_Distribution_Center";"tx90p-1";"pdsisc-3";"coastalflood-1";"carbonprice-1";"zindex-3";"-";"-"
611;25;"Lake_Forest_IL";-87.912772;42.236819;"WW_Grainger_Corporate_Office";"tx90p-1";"pdsisc-3";"coastalflood-1";"carbonprice-1";"zindex-3";"-";"-"
612;25;"Jacksonville_FL";-81.779208;30.383907;"Grainger_Distribution_Center";"tx90p-1";"pdsisc-3";"coastalflood-1";"carbonprice-1";"zindex-3";"-";"-"
613;25;"Mira_Loma_CA";-117.556566;34.002808;"Grainger_Distribution_Center";"tx90p-1";"pdsisc-3";"coastalflood-1";"carbonprice-1";"zindex-3";"-";"-"
614;25;"Patterson_CA";-121.174419;37.475186;"Grainger_Distribution_Center";"tx90p-1";"pdsisc-3";"coastalflood-1";"carbonprice-1";"zindex-3";"-";"-"
615;25;"Kansas_City_MO";-94.444569;39.157645;"Grainger_Distribution_Center";"tx90p-1";"pdsisc-3";"coastalflood-1";"carbonprice-1";"zindex-3";"-";"-"
616;25;"Minooka_IL";-88.279135;41.45918;"Grainger_Warehouse";"tx90p-1";"pdsisc-3";"coastalflood-1";"carbonprice-1";"zindex-3";"-";"-"
617;25;"Roanoke_TX";-97.250619;32.995232;"Grainger_Warehouse";"tx90p-1";"pdsisc-3";"coastalflood-1";"carbonprice-1";"zindex-3";"-";"-"
618;25;"Tukwila_WA";-122.23092;47.435493;"Grainger_Warehouse";"tx90p-1";"pdsisc-3";"coastalflood-1";"carbonprice-1";"zindex-3";"-";"-"
619;25;"Southaven_MS";-89.9905;34.923959;"Grainger_Distribution_Center";"tx90p-1";"pdsisc-3";"coastalflood-1";"carbonprice-1";"zindex-3";"-";"-"
620;25;"Denver_CO";-104.987896;39.821859;"Grainger_Warehouse";"tx90p-1";"pdsisc-3";"coastalflood-1";"carbonprice-1";"zindex-3";"-";"-"
621;25;"Green_Bay_WI";-88.034078;44.493123;"Grainger_Warehouse";"tx90p-1";"pdsisc-3";"coastalflood-1";"carbonprice-1";"zindex-3";"-";"-"
622;26;"Colorado_Springs_CO";-104.814791;39.014012;"Data_Center";"tx90p-1";"pdsisc-3";"coastalflood-1";"carbonprice-1";"zindex-3";"-";"-"
623;26;"Mayfield_OH";-81.443826;41.56318;"Data_Center_Corporate_Campus";"tx90p-1";"pdsisc-3";"coastalflood-1";"carbonprice-1";"zindex-3";"-";"-"
624;26;"Phoenix_AZ";-111.986623;33.406424;"Call_Center_Corporate_Offices";"tx90p-1";"pdsisc-3";"coastalflood-1";"carbonprice-1";"zindex-3";"-";"-"
625;26;"Riverview_FL";-82.344135;27.911146;"Corporate_Offices";"tx90p-1";"pdsisc-3";"coastalflood-1";"carbonprice-1";"zindex-3";"-";"-"
626;26;"St_Petersbug_FL";-82.344111;27.911335;"Corporate_Offices";"tx90p-1";"pdsisc-3";"coastalflood-1";"carbonprice-1";"zindex-3";"-";"-"
627;26;"Austin_TX";-97.698011;30.209404;"Corporate_Offices";"tx90p-1";"pdsisc-3";"coastalflood-1";"carbonprice-1";"zindex-3";"-";"-"
628;26;"Sacramento_CA";-121.279932;38.587792;"Corporate_Offices";"tx90p-1";"pdsisc-3";"coastalflood-1";"carbonprice-1";"zindex-3";"-";"-"
629;26;"Mayfield_OH_2";-81.45815;41.509876;"Coporate_Campus_II";"tx90p-1";"pdsisc-3";"coastalflood-1";"carbonprice-1";"zindex-3";"-";"-"
